stop_id,stop_code,stop_name,stop_desc,stop_lat,stop_lon,stop_url,location_type,parent_station
5032,,"Ulbrokas vidusskola",,56.92910,24.32064,https://saraksti.rigassatiksme.lv,,
5003,,"11.novembra krastmala",,56.94577,24.10541,https://saraksti.rigassatiksme.lv,,
1025a,,"13.janvāra iela",,56.94543,24.11311,https://saraksti.rigassatiksme.lv,,
1025b,,"13.janvāra iela",,56.94571,24.11373,https://saraksti.rigassatiksme.lv,,
1025,,"13.janvāra iela",,56.94562,24.11349,https://saraksti.rigassatiksme.lv,,
1251a,,"Autoosta",,56.94639,24.11635,https://saraksti.rigassatiksme.lv,,
1251b,,"Autoosta",,56.94621,24.11589,https://saraksti.rigassatiksme.lv,,
0529,,"Jaunciema 8.šķērslīnija",,57.03792,24.18472,https://saraksti.rigassatiksme.lv,,
0173,,"Jaunciema kapi",,57.04154,24.18861,https://saraksti.rigassatiksme.lv,,
2038,,"Aristida Briāna iela",,56.96286,24.12589,https://saraksti.rigassatiksme.lv,,
2032,,"K.Valdemāra iela",,56.96291,24.12541,https://saraksti.rigassatiksme.lv,,
2039,,"Miera iela",,56.96539,24.13254,https://saraksti.rigassatiksme.lv,,
0003,,"A.Čaka iela",,56.96361,24.14962,https://saraksti.rigassatiksme.lv,,
0148,,"Ģertrūdes iela",,56.95331,24.13095,https://saraksti.rigassatiksme.lv,,
2063,,"Ģertrūdes iela",,56.95368,24.13135,https://saraksti.rigassatiksme.lv,,
0273,,"Matīsa iela",,56.95627,24.13644,https://saraksti.rigassatiksme.lv,,
0270,,"Matīsa iela",,56.95644,24.13652,https://saraksti.rigassatiksme.lv,,
0345,,"Pērnavas iela",,56.96325,24.14959,https://saraksti.rigassatiksme.lv,,
0470,,"Tallinas iela",,56.95896,24.14143,https://saraksti.rigassatiksme.lv,,
0469,,"Tallinas iela",,56.95934,24.14196,https://saraksti.rigassatiksme.lv,,
5342,,"A.Saharova iela",,56.94603,24.20855,https://saraksti.rigassatiksme.lv,,
5343,,"A.Saharova iela",,56.94664,24.20523,https://saraksti.rigassatiksme.lv,,
5035a,,"Baltinavas iela",,56.94320,24.23254,https://saraksti.rigassatiksme.lv,,
5036a,,"Baltinavas iela",,56.94340,24.23110,https://saraksti.rigassatiksme.lv,,
0090,,"Dārzciema iela",,56.94944,24.18412,https://saraksti.rigassatiksme.lv,,
5088,,"Dārzciema iela",,56.94890,24.18737,https://saraksti.rigassatiksme.lv,,
0098,,"Daugavas stadions",,56.95332,24.15537,https://saraksti.rigassatiksme.lv,,
5090,,"Daugavas stadions",,56.95328,24.15477,https://saraksti.rigassatiksme.lv,,
5140,,"Ilūkstes iela",,56.94743,24.19842,https://saraksti.rigassatiksme.lv,,
5141,,"Ilūkstes iela",,56.94810,24.19430,https://saraksti.rigassatiksme.lv,,
9095,,"Kaivas iela",,56.94399,24.24039,https://saraksti.rigassatiksme.lv,,
9096,,"Kaivas iela",,56.94413,24.23991,https://saraksti.rigassatiksme.lv,,
5197,,"Liepiņas",,56.94422,24.22229,https://saraksti.rigassatiksme.lv,,
5198,,"Liepiņas",,56.94460,24.22103,https://saraksti.rigassatiksme.lv,,
0310,,"Nīcgales iela",,56.95110,24.17079,https://saraksti.rigassatiksme.lv,,
0308,,"Nīcgales iela",,56.95101,24.17224,https://saraksti.rigassatiksme.lv,,
9100,,"Ulbrokas iela 13",,56.94587,24.21135,https://saraksti.rigassatiksme.lv,,
9101,,"Ulbrokas iela 13",,56.94541,24.21344,https://saraksti.rigassatiksme.lv,,
7990,,"Viršu iela",,56.95023,24.17745,https://saraksti.rigassatiksme.lv,,
7991,,"Viršu iela",,56.95041,24.17666,https://saraksti.rigassatiksme.lv,,
0218,,"Kreimeņu iela",,57.03605,24.09705,https://saraksti.rigassatiksme.lv,,
0255,,"Kultūras pils ""Ziemeļblāzma""",,57.03509,24.10036,https://saraksti.rigassatiksme.lv,,
0254,,"Martas Rinkas iela",,57.03446,24.10240,https://saraksti.rigassatiksme.lv,,
0283,,"Melīdas iela",,57.03227,24.10902,https://saraksti.rigassatiksme.lv,,
0282,,"Melīdas iela",,57.03157,24.10997,https://saraksti.rigassatiksme.lv,,
5456,,"A.Deglava iela",,56.94483,24.20657,https://saraksti.rigassatiksme.lv,,
5470,,"A.Saharova iela",,56.94396,24.20571,https://saraksti.rigassatiksme.lv,,
5455,,"Brāļu Kaudzīšu iela",,56.94170,24.20522,https://saraksti.rigassatiksme.lv,,
5471,,"Brāļu Kaudzīšu iela",,56.94074,24.20434,https://saraksti.rigassatiksme.lv,,
0493,,"Pavasara gatve",,56.93406,24.20199,https://saraksti.rigassatiksme.lv,,
0492,,"Pavasara gatve",,56.93297,24.20106,https://saraksti.rigassatiksme.lv,,
0394,,"Rudens iela",,56.93786,24.20314,https://saraksti.rigassatiksme.lv,,
0393,,"Rudens iela",,56.93727,24.20334,https://saraksti.rigassatiksme.lv,,
5042,,"Beberbeķi",,56.92393,23.91408,https://saraksti.rigassatiksme.lv,,
5041,,"Beberbeķi",,56.92820,23.91613,https://saraksti.rigassatiksme.lv,,
1550,,"Ceļš uz Vārnukrogu",,56.95976,23.95258,https://saraksti.rigassatiksme.lv,,
5081,,"Dabas parks",,56.93667,23.91854,https://saraksti.rigassatiksme.lv,,
5080,,"Dabas parks",,56.93688,23.91910,https://saraksti.rigassatiksme.lv,,
4131,,"Pagrieziens uz Piņķiem",,56.94603,23.92306,https://saraksti.rigassatiksme.lv,,
4132,,"Pagrieziens uz Piņķiem",,56.94404,23.92294,https://saraksti.rigassatiksme.lv,,
1297,,"Bauskas šoseja",,56.88223,24.15917,https://saraksti.rigassatiksme.lv,,
5323,,"Rāmava",,56.88995,24.14813,https://saraksti.rigassatiksme.lv,,
5324,,"Rāmava",,56.89064,24.14867,https://saraksti.rigassatiksme.lv,,
6445,,"Titurga",,56.88175,24.15953,https://saraksti.rigassatiksme.lv,,
7749a,,"Abrenes iela",,56.94608,24.13020,https://saraksti.rigassatiksme.lv,,
7749,,"Abrenes iela",,56.94610,24.12994,https://saraksti.rigassatiksme.lv,,
7749b,,"Abrenes iela",,56.94607,24.13052,https://saraksti.rigassatiksme.lv,,
7749c,,"Abrenes iela",,56.94607,24.13079,https://saraksti.rigassatiksme.lv,,
7749d,,"Abrenes iela",,56.94609,24.13124,https://saraksti.rigassatiksme.lv,,
1613,,"Bukulti",,57.02085,24.25880,https://saraksti.rigassatiksme.lv,,
1668,,"Lejasvīganti",,57.00675,24.26126,https://saraksti.rigassatiksme.lv,,
1669,,"Lejasvīganti",,57.00672,24.26116,https://saraksti.rigassatiksme.lv,,
2045,,"Āgenskalna iela",,56.94591,24.06205,https://saraksti.rigassatiksme.lv,,
2046,,"Āgenskalna priedes",,56.94459,24.05949,https://saraksti.rigassatiksme.lv,,
2094,,"Aizkraukles iela",,56.97558,24.18760,https://saraksti.rigassatiksme.lv,,
2099,,"Aizkraukles iela",,56.97530,24.18336,https://saraksti.rigassatiksme.lv,,
2093,,"Linezers",,56.97710,24.19293,https://saraksti.rigassatiksme.lv,,
0032,,"Bākas iela",,57.05224,24.06924,https://saraksti.rigassatiksme.lv,,
0031,,"Bākas iela",,57.05202,24.06830,https://saraksti.rigassatiksme.lv,,
1072,,"Anniņmuižas bulvāris",,56.95990,24.01233,https://saraksti.rigassatiksme.lv,,
1085,,"Anniņmuižas bulvāris",,56.96003,24.01380,https://saraksti.rigassatiksme.lv,,
1077,,"Anniņmuižas parks",,56.95402,24.00860,https://saraksti.rigassatiksme.lv,,
1084,,"Anniņmuižas parks",,56.95538,24.00893,https://saraksti.rigassatiksme.lv,,
1071,,"Kleistu iela",,56.96024,24.01804,https://saraksti.rigassatiksme.lv,,
1086,,"Kleistu iela",,56.95885,24.02189,https://saraksti.rigassatiksme.lv,,
1433,,"P.Lejiņa iela",,56.94699,24.01210,https://saraksti.rigassatiksme.lv,,
1432,,"Priedaines iela",,56.94300,24.01762,https://saraksti.rigassatiksme.lv,,
1431,,"Priedaines iela",,56.94359,24.01609,https://saraksti.rigassatiksme.lv,,
1537,,"Apuzes iela",,56.93373,24.03027,https://saraksti.rigassatiksme.lv,,
1427,,"Jūrkalnes iela",,56.93948,24.02227,https://saraksti.rigassatiksme.lv,,
1428,,"Jūrkalnes iela",,56.93929,24.02242,https://saraksti.rigassatiksme.lv,,
1429,,"Šampētera iela",,56.93788,24.02483,https://saraksti.rigassatiksme.lv,,
1430,,"Šampētera iela",,56.93736,24.02542,https://saraksti.rigassatiksme.lv,,
1403,,"Asītes iela",,56.92182,24.07433,https://saraksti.rigassatiksme.lv,,
0013,,"Airu iela",,57.04760,24.09548,https://saraksti.rigassatiksme.lv,,
0014,,"Airu iela",,57.04779,24.09624,https://saraksti.rigassatiksme.lv,,
0030,,"Atlantijas iela",,57.03779,24.08740,https://saraksti.rigassatiksme.lv,,
0029,,"Atlantijas iela",,57.03652,24.08643,https://saraksti.rigassatiksme.lv,,
0337,,"Ķīļu iela",,57.05023,24.10164,https://saraksti.rigassatiksme.lv,,
0336,,"Pagrieziens uz Vecmīlgrāvi",,57.05054,24.10184,https://saraksti.rigassatiksme.lv,,
0215,,"Vecdaugavas iela",,57.04450,24.09218,https://saraksti.rigassatiksme.lv,,
0214,,"Vecdaugavas iela",,57.04459,24.09203,https://saraksti.rigassatiksme.lv,,
0089,,"Vecmīlgrāvja D/P",,57.04190,24.08947,https://saraksti.rigassatiksme.lv,,
0088,,"Vecmīlgrāvja D/P",,57.04198,24.08883,https://saraksti.rigassatiksme.lv,,
8015,,"Mākoņkalns",,56.89502,24.16568,https://saraksti.rigassatiksme.lv,,
8016,,"Mākoņkalns",,56.89506,24.16515,https://saraksti.rigassatiksme.lv,,
2076,,"Avotu iela",,56.95066,24.13278,https://saraksti.rigassatiksme.lv,,
2069,,"Bruņinieku iela",,56.95228,24.14022,https://saraksti.rigassatiksme.lv,,
0272,,"Matīsa iela",,56.95291,24.14361,https://saraksti.rigassatiksme.lv,,
2070,,"Stabu iela",,56.95149,24.13640,https://saraksti.rigassatiksme.lv,,
2077,,"Stabu iela",,56.95159,24.13736,https://saraksti.rigassatiksme.lv,,
2033,,"Baložu iela",,56.94571,24.07205,https://saraksti.rigassatiksme.lv,,
5259,,"Pagrieziens uz Baložiem",,56.88402,24.15198,https://saraksti.rigassatiksme.lv,,
1316,,"Sūkņu stacija",,56.88352,24.14740,https://saraksti.rigassatiksme.lv,,
1308,,"Sūkņu stacija",,56.88349,24.14686,https://saraksti.rigassatiksme.lv,,
0041,,"Baltāsbaznīcas iela",,57.03630,24.09110,https://saraksti.rigassatiksme.lv,,
5010,,"Āgenskalna tirgus",,56.93569,24.07240,https://saraksti.rigassatiksme.lv,,
5011,,"Āgenskalna tirgus",,56.93571,24.07280,https://saraksti.rigassatiksme.lv,,
1112,,"E.Smiļģa iela",,56.93682,24.07786,https://saraksti.rigassatiksme.lv,,
1242,,"E.Smiļģa iela",,56.93665,24.07701,https://saraksti.rigassatiksme.lv,,
5136,,"Bišumuiža",,56.91498,24.14039,https://saraksti.rigassatiksme.lv,,
5137,,"Bišumuiža",,56.91408,24.14151,https://saraksti.rigassatiksme.lv,,
1280,,"Doles iela",,56.91584,24.13235,https://saraksti.rigassatiksme.lv,,
1281,,"Doles iela",,56.91595,24.13443,https://saraksti.rigassatiksme.lv,,
5294,,"Jāņa Čakstes gatve",,56.90852,24.14607,https://saraksti.rigassatiksme.lv,,
1264,,"Koku iela",,56.92236,24.09552,https://saraksti.rigassatiksme.lv,,
1269,,"Koku iela",,56.92208,24.09572,https://saraksti.rigassatiksme.lv,,
1277,,"Mazā Stērstu iela",,56.91374,24.11830,https://saraksti.rigassatiksme.lv,,
5295,,"Piena kombināts",,56.91142,24.14508,https://saraksti.rigassatiksme.lv,,
1292,,"Sarma",,56.89581,24.14746,https://saraksti.rigassatiksme.lv,,
1293,,"Sarma",,56.89716,24.14737,https://saraksti.rigassatiksme.lv,,
1274,,"Skaistkalnes iela",,56.91782,24.10387,https://saraksti.rigassatiksme.lv,,
1275,,"Skaistkalnes iela",,56.91795,24.10361,https://saraksti.rigassatiksme.lv,,
1272,,"Stērstu iela/CSDD",,56.91473,24.11341,https://saraksti.rigassatiksme.lv,,
1273,,"Stērstu iela/CSDD",,56.91500,24.11242,https://saraksti.rigassatiksme.lv,,
1286,,"Štrausi",,56.90696,24.14627,https://saraksti.rigassatiksme.lv,,
1287,,"Štrausi",,56.90580,24.14630,https://saraksti.rigassatiksme.lv,,
5424,,"Valdlauču centrs",,56.90251,24.14668,https://saraksti.rigassatiksme.lv,,
1289,,"Valdlauču centrs",,56.90124,24.14673,https://saraksti.rigassatiksme.lv,,
1278,,"Ziepniekkalna iela",,56.91409,24.12139,https://saraksti.rigassatiksme.lv,,
1279,,"Ziepniekkalna iela",,56.91510,24.12282,https://saraksti.rigassatiksme.lv,,
1070,,"Bebru iela",,56.95753,24.02616,https://saraksti.rigassatiksme.lv,,
1087,,"Bebru iela",,56.95743,24.02830,https://saraksti.rigassatiksme.lv,,
0342,,"Berģuciems",,56.97801,24.30995,https://saraksti.rigassatiksme.lv,,
0129,,"Ezerkrasti",,56.97946,24.30557,https://saraksti.rigassatiksme.lv,,
0174,,"Jaunības iela",,56.98564,24.29746,https://saraksti.rigassatiksme.lv,,
0175,,"Jaunības iela",,56.98560,24.29734,https://saraksti.rigassatiksme.lv,,
0241,,"Lejasciema iela",,56.98333,24.30016,https://saraksti.rigassatiksme.lv,,
0240,,"Lejasciema iela",,56.98313,24.30057,https://saraksti.rigassatiksme.lv,,
0258,,"Mākoņu iela",,56.97986,24.30494,https://saraksti.rigassatiksme.lv,,
0390,,"Rožu iela",,56.99773,24.27706,https://saraksti.rigassatiksme.lv,,
0389,,"Rožu iela",,56.99772,24.27688,https://saraksti.rigassatiksme.lv,,
0464,,"Tadenavas iela",,56.98725,24.29476,https://saraksti.rigassatiksme.lv,,
0463,,"Tadenavas iela",,56.98764,24.29430,https://saraksti.rigassatiksme.lv,,
0332,,"Upesciema iela",,56.99008,24.29103,https://saraksti.rigassatiksme.lv,,
0333,,"Upesciema iela",,56.99033,24.29105,https://saraksti.rigassatiksme.lv,,
0021,,"Vējdzirnavu iela",,56.99486,24.28172,https://saraksti.rigassatiksme.lv,,
0022,,"Vējdzirnavu iela",,56.99526,24.28109,https://saraksti.rigassatiksme.lv,,
1514,,"Bebrenes iela",,56.95749,24.29319,https://saraksti.rigassatiksme.lv,,
1527,,"Bebrenes iela",,56.95755,24.29304,https://saraksti.rigassatiksme.lv,,
1512,,"Bērnu slimnīca ""Gaiļezers""",,56.95624,24.25706,https://saraksti.rigassatiksme.lv,,
1529,,"Bērnu slimnīca ""Gaiļezers""",,56.95631,24.25438,https://saraksti.rigassatiksme.lv,,
0188,,"Biķernieku memoriāls",,56.96504,24.20954,https://saraksti.rigassatiksme.lv,,
0187,,"Biķernieku memoriāls",,56.96566,24.20741,https://saraksti.rigassatiksme.lv,,
1513,,"Brekši",,56.95709,24.28788,https://saraksti.rigassatiksme.lv,,
1528,,"Brekši",,56.95725,24.28729,https://saraksti.rigassatiksme.lv,,
1531,,"Burtnieku iela",,56.96967,24.18460,https://saraksti.rigassatiksme.lv,,
1511,,"Ķeguma iela/Stacionārs ""Biķernieki""",,56.96804,24.19391,https://saraksti.rigassatiksme.lv,,
1530,,"Ķeguma iela/Stacionārs ""Biķernieki""",,56.96792,24.19503,https://saraksti.rigassatiksme.lv,,
1510,,"Laimdotas iela",,56.96899,24.18829,https://saraksti.rigassatiksme.lv,,
1515,,"Nautrēnu iela",,56.95925,24.29861,https://saraksti.rigassatiksme.lv,,
1526,,"Nautrēnu iela",,56.95900,24.29753,https://saraksti.rigassatiksme.lv,,
1516,,"Papīrfabrika ""Jugla""",,56.96075,24.30231,https://saraksti.rigassatiksme.lv,,
1525,,"Papīrfabrika ""Jugla""",,56.96082,24.30218,https://saraksti.rigassatiksme.lv,,
0378,,"Ratnieki",,56.95742,24.24000,https://saraksti.rigassatiksme.lv,,
0379a,,"Ratnieki",,56.95803,24.23653,https://saraksti.rigassatiksme.lv,,
0409,,"S.Eizenšteina iela",,56.95951,24.23039,https://saraksti.rigassatiksme.lv,,
0407,,"S.Eizenšteina iela",,56.95910,24.23236,https://saraksti.rigassatiksme.lv,,
0456,,"Struktoru iela",,56.97145,24.17327,https://saraksti.rigassatiksme.lv,,
0465,,"Tālivalža iela",,56.97075,24.17786,https://saraksti.rigassatiksme.lv,,
1509,,"Tālivalža iela",,56.97039,24.17970,https://saraksti.rigassatiksme.lv,,
0196,,"Brāļu Kaudzīšu iela",,56.94045,24.19660,https://saraksti.rigassatiksme.lv,,
0005,,"Dzeņu iela",,56.93912,24.20657,https://saraksti.rigassatiksme.lv,,
0004,,"Dzeņu iela",,56.93943,24.20665,https://saraksti.rigassatiksme.lv,,
1290a,,"Brīvības piemineklis",,56.95243,24.11434,https://saraksti.rigassatiksme.lv,,
1290b,,"Brīvības piemineklis",,56.95214,24.11388,https://saraksti.rigassatiksme.lv,,
0194,,"Esplanāde",,56.95347,24.11597,https://saraksti.rigassatiksme.lv,,
0194b,,"Esplanāde",,56.95384,24.11657,https://saraksti.rigassatiksme.lv,,
0194c,,"Esplanāde",,56.95322,24.11558,https://saraksti.rigassatiksme.lv,,
1490,,"Tērbatas iela",,56.95303,24.11615,https://saraksti.rigassatiksme.lv,,
0006,,"Alfa",,56.98381,24.20178,https://saraksti.rigassatiksme.lv,,
0038,,"Bajāru iela",,56.97635,24.17693,https://saraksti.rigassatiksme.lv,,
0039,,"Bajāru iela",,56.97605,24.17567,https://saraksti.rigassatiksme.lv,,
0227,,"Berģi",,56.99897,24.27358,https://saraksti.rigassatiksme.lv,,
0228,,"Berģi",,56.99927,24.27352,https://saraksti.rigassatiksme.lv,,
0057,,"Brīvdabas muzejs",,56.99625,24.26476,https://saraksti.rigassatiksme.lv,,
0056,,"Brīvdabas muzejs",,56.99662,24.26464,https://saraksti.rigassatiksme.lv,,
0112,,"Dzērbenes iela",,56.98105,24.19237,https://saraksti.rigassatiksme.lv,,
0111,,"Dzērbenes iela",,56.98078,24.19117,https://saraksti.rigassatiksme.lv,,
0419,,"Gustava Zemgala gatve",,56.97371,24.16807,https://saraksti.rigassatiksme.lv,,
0418,,"Gustava Zemgala gatve",,56.97382,24.16873,https://saraksti.rigassatiksme.lv,,
0180,,"Juglas iela",,56.98901,24.23837,https://saraksti.rigassatiksme.lv,,
0181,,"Juglas iela",,56.98996,24.24245,https://saraksti.rigassatiksme.lv,,
0222,,"Krustabaznīcas iela",,56.98231,24.19657,https://saraksti.rigassatiksme.lv,,
0221,,"Krustabaznīcas iela",,56.98191,24.19489,https://saraksti.rigassatiksme.lv,,
0301,,"Mārkalnes iela",,56.98809,24.23085,https://saraksti.rigassatiksme.lv,,
2024,,"Palmu iela",,56.97790,24.18204,https://saraksti.rigassatiksme.lv,,
0455,,"Struktoru iela",,56.97524,24.17341,https://saraksti.rigassatiksme.lv,,
2018,,"Šmerlis",,56.98484,24.20858,https://saraksti.rigassatiksme.lv,,
0436,,"Šmerļa iela",,56.98551,24.20957,https://saraksti.rigassatiksme.lv,,
2018a,,"Šmerļa iela",,56.98510,24.20876,https://saraksti.rigassatiksme.lv,,
0045,,"Tirzas iela",,56.98713,24.22266,https://saraksti.rigassatiksme.lv,,
0399,,"VEF",,56.97107,24.15931,https://saraksti.rigassatiksme.lv,,
0400,,"VEF",,56.97188,24.16271,https://saraksti.rigassatiksme.lv,,
0208,,"Zemitāna laukums",,56.97921,24.18637,https://saraksti.rigassatiksme.lv,,
0207,,"Zemitāna laukums",,56.97918,24.18598,https://saraksti.rigassatiksme.lv,,
0081,,"Cēsu iela",,56.96554,24.14331,https://saraksti.rigassatiksme.lv,,
0080,,"Cēsu iela",,56.96584,24.14369,https://saraksti.rigassatiksme.lv,,
0145,,"Ģertrūdes iela",,56.95676,24.12194,https://saraksti.rigassatiksme.lv,,
7987,,"Ģertrūdes iela",,56.95663,24.12204,https://saraksti.rigassatiksme.lv,,
0219,,"K.Barona iela",,56.96786,24.14997,https://saraksti.rigassatiksme.lv,,
0220,,"K.Barona iela",,56.96789,24.14961,https://saraksti.rigassatiksme.lv,,
2023,,"K.Barona iela",,56.96797,24.15031,https://saraksti.rigassatiksme.lv,,
0269,,"Matīsa iela",,56.96029,24.13050,https://saraksti.rigassatiksme.lv,,
0268,,"Matīsa iela",,56.96027,24.13084,https://saraksti.rigassatiksme.lv,,
2020,,"Matīsa iela",,56.95996,24.12951,https://saraksti.rigassatiksme.lv,,
2021,,"Matīsa iela",,56.96000,24.13012,https://saraksti.rigassatiksme.lv,,
0466,,"Tallinas iela",,56.96246,24.13588,https://saraksti.rigassatiksme.lv,,
0468,,"Tallinas iela",,56.96329,24.13755,https://saraksti.rigassatiksme.lv,,
1494,,"A.Čaka iela",,56.95465,24.13487,https://saraksti.rigassatiksme.lv,,
1496,,"Brīvības iela",,56.95861,24.12709,https://saraksti.rigassatiksme.lv,,
5463,,"Rīgas 1.slimnīca",,56.96008,24.12456,https://saraksti.rigassatiksme.lv,,
1495,,"Tērbatas iela",,56.95704,24.13016,https://saraksti.rigassatiksme.lv,,
1171,,"Vakarbuļļi",,57.00100,23.94337,https://saraksti.rigassatiksme.lv,,
1052,,"Baltegļu iela",,56.97730,24.02667,https://saraksti.rigassatiksme.lv,,
0637,,"Buļļu iela",,56.96477,24.05906,https://saraksti.rigassatiksme.lv,,
1220,,"Buļļu iela",,56.96648,24.05547,https://saraksti.rigassatiksme.lv,,
0615,,"Dzirciema iela",,56.96475,24.05937,https://saraksti.rigassatiksme.lv,,
1221,,"Dzirciema iela",,56.96598,24.05635,https://saraksti.rigassatiksme.lv,,
1208,,"Garā iela",,56.96898,24.05030,https://saraksti.rigassatiksme.lv,,
1209,,"Garā iela",,56.96860,24.05110,https://saraksti.rigassatiksme.lv,,
1051,,"Kleistu iela",,56.97595,24.03262,https://saraksti.rigassatiksme.lv,,
1053,,"Kleistu iela",,56.97577,24.03330,https://saraksti.rigassatiksme.lv,,
1202,,"Lāčupīte",,56.97504,24.03644,https://saraksti.rigassatiksme.lv,,
1203,,"Lāčupīte",,56.97517,24.03637,https://saraksti.rigassatiksme.lv,,
0614,,"Saldus iela",,56.96213,24.06358,https://saraksti.rigassatiksme.lv,,
0638,,"Saldus iela",,56.96168,24.06491,https://saraksti.rigassatiksme.lv,,
1206,,"Saulgožu iela",,56.96970,24.04722,https://saraksti.rigassatiksme.lv,,
1207,,"Spilves iela",,56.96963,24.04860,https://saraksti.rigassatiksme.lv,,
1204,,"Virbu iela",,56.97233,24.04089,https://saraksti.rigassatiksme.lv,,
1205,,"Virbu iela",,56.97152,24.04234,https://saraksti.rigassatiksme.lv,,
2055,,"Jelgavas iela",,56.93174,24.09953,https://saraksti.rigassatiksme.lv,,
1300,,"Ādiņas",,56.87967,24.17285,https://saraksti.rigassatiksme.lv,,
1301,,"Ādiņas",,56.87963,24.17296,https://saraksti.rigassatiksme.lv,,
1303,,"Dzelzskalni",,56.88337,24.18330,https://saraksti.rigassatiksme.lv,,
1306,,"Dzelzskalni",,56.88336,24.18274,https://saraksti.rigassatiksme.lv,,
1304,,"Kalnavoti",,56.88324,24.18980,https://saraksti.rigassatiksme.lv,,
8056,,"Kalnavoti",,56.88315,24.18988,https://saraksti.rigassatiksme.lv,,
1305,,"Katlakalns",,56.88444,24.19306,https://saraksti.rigassatiksme.lv,,
1298,,"Vidēji",,56.87964,24.16770,https://saraksti.rigassatiksme.lv,,
1299,,"Vidēji",,56.87972,24.16765,https://saraksti.rigassatiksme.lv,,
2112,,"Brīvības iela",,56.96305,24.13597,https://saraksti.rigassatiksme.lv,,
0467,,"Tallinas iela",,56.96273,24.13567,https://saraksti.rigassatiksme.lv,,
0033,,"Augstrozes iela",,56.98333,24.16018,https://saraksti.rigassatiksme.lv,,
0315,,"Čiekurkalna 2.šķērslīnija",,56.98264,24.16653,https://saraksti.rigassatiksme.lv,,
0350,,"Čiekurkalna 5.šķērslīnija",,56.98296,24.17354,https://saraksti.rigassatiksme.lv,,
0028,,"Čiekurkalna 8. šķērslīnija",,56.98322,24.18106,https://saraksti.rigassatiksme.lv,,
0316,,"Čiekurkalna 2.šķērslīnija",,56.98552,24.16613,https://saraksti.rigassatiksme.lv,,
0082,,"Čiekurkalna 4.šķērslīnija",,56.98577,24.17099,https://saraksti.rigassatiksme.lv,,
0423,,"Čiekurkalna 6.šķērslīnija",,56.98607,24.17726,https://saraksti.rigassatiksme.lv,,
0104,,"Čiekurkalna 9.šķērslīnija",,56.98635,24.18285,https://saraksti.rigassatiksme.lv,,
1380,,"Dauguļu iela",,56.92144,24.04650,https://saraksti.rigassatiksme.lv,,
1381,,"Dauguļu iela",,56.92144,24.04537,https://saraksti.rigassatiksme.lv,,
0139,,"Ganību dambis",,56.98841,24.12306,https://saraksti.rigassatiksme.lv,,
0140,,"Ganību dambis",,56.98851,24.12278,https://saraksti.rigassatiksme.lv,,
0091,,"Dārzciema iela",,56.93270,24.18190,https://saraksti.rigassatiksme.lv,,
1503,,"Dārzciema iela",,56.94488,24.18275,https://saraksti.rigassatiksme.lv,,
0251,,"Lubānas iela",,56.93201,24.18149,https://saraksti.rigassatiksme.lv,,
0352,,"Pildas iela",,56.94136,24.18163,https://saraksti.rigassatiksme.lv,,
1508,,"Pildas iela",,56.94216,24.18216,https://saraksti.rigassatiksme.lv,,
5469,,"Sesku iela",,56.94533,24.18328,https://saraksti.rigassatiksme.lv,,
0454,,"Strautu iela",,56.93734,24.18209,https://saraksti.rigassatiksme.lv,,
0453,,"Strautu iela",,56.93850,24.18237,https://saraksti.rigassatiksme.lv,,
0094,,"Dārziņi",,56.85944,24.29716,https://saraksti.rigassatiksme.lv,,
0533,,"Dārziņu 27.līnija",,56.86790,24.27810,https://saraksti.rigassatiksme.lv,,
0534,,"Dārziņu 27.līnija",,56.86822,24.27793,https://saraksti.rigassatiksme.lv,,
0538,,"Dārziņu 38.līnija",,56.86107,24.28593,https://saraksti.rigassatiksme.lv,,
0537,,"Dārziņu 38.līnija",,56.86186,24.28457,https://saraksti.rigassatiksme.lv,,
0540,,"Dārziņu 46.līnija",,56.85989,24.29089,https://saraksti.rigassatiksme.lv,,
0541,,"Dārziņu 46.līnija",,56.85995,24.29125,https://saraksti.rigassatiksme.lv,,
0411,,"Sakņu iela",,56.86331,24.28268,https://saraksti.rigassatiksme.lv,,
0410,,"Sakņu iela",,56.86345,24.28237,https://saraksti.rigassatiksme.lv,,
5204,,"Mārupes novada dome",,56.90515,24.05468,https://saraksti.rigassatiksme.lv,,
5205,,"Mārupes novada dome",,56.90608,24.05642,https://saraksti.rigassatiksme.lv,,
5361,,"Mārupītes gatve",,56.90043,24.04630,https://saraksti.rigassatiksme.lv,,
5315,,"Sēļi",,56.89772,24.03515,https://saraksti.rigassatiksme.lv,,
5316,,"Sēļi",,56.89831,24.03807,https://saraksti.rigassatiksme.lv,,
5438,,"Vizmas",,56.89077,24.00673,https://saraksti.rigassatiksme.lv,,
5440,,"Zaigas",,56.89404,24.01939,https://saraksti.rigassatiksme.lv,,
5441,,"Zaigas",,56.89437,24.02165,https://saraksti.rigassatiksme.lv,,
5091,,"Daugavgrīvas iela",,56.94507,24.08178,https://saraksti.rigassatiksme.lv,,
1226,,"Dzegužkalns",,56.96220,24.07116,https://saraksti.rigassatiksme.lv,,
1227,,"Dzegužkalns",,56.96120,24.07073,https://saraksti.rigassatiksme.lv,,
1228,,"Iļģuciems",,56.96578,24.07159,https://saraksti.rigassatiksme.lv,,
1229,,"Iļģuciems",,56.96597,24.07146,https://saraksti.rigassatiksme.lv,,
0612,,"Kliņģeru iela",,56.95329,24.07043,https://saraksti.rigassatiksme.lv,,
0640,,"Kliņģeru iela",,56.95293,24.07030,https://saraksti.rigassatiksme.lv,,
1129,,"Lidoņu iela",,56.97111,24.07343,https://saraksti.rigassatiksme.lv,,
1130,,"Lidoņu iela",,56.97145,24.07331,https://saraksti.rigassatiksme.lv,,
1135,,"Pagrieziens uz Voleriem",,56.98866,24.08296,https://saraksti.rigassatiksme.lv,,
1133,,"Podraga iela",,56.97798,24.07999,https://saraksti.rigassatiksme.lv,,
1134,,"Podraga iela",,56.97855,24.08096,https://saraksti.rigassatiksme.lv,,
1131,,"Spilves lidlauks",,56.97415,24.07559,https://saraksti.rigassatiksme.lv,,
1132,,"Spilves lidlauks",,56.97494,24.07620,https://saraksti.rigassatiksme.lv,,
0613,,"Ūdens iela",,56.95628,24.07041,https://saraksti.rigassatiksme.lv,,
0639,,"Ūdens iela",,56.95523,24.06984,https://saraksti.rigassatiksme.lv,,
1144,,"Beķermuiža",,57.00613,24.07626,https://saraksti.rigassatiksme.lv,,
1145,,"Beķermuiža",,57.00686,24.07580,https://saraksti.rigassatiksme.lv,,
1148,,"Guberņciems",,57.01817,24.05725,https://saraksti.rigassatiksme.lv,,
1149,,"Guberņciems",,57.01836,24.05605,https://saraksti.rigassatiksme.lv,,
1141,,"Pagrieziens uz Voleriem",,56.98923,24.08215,https://saraksti.rigassatiksme.lv,,
1142,,"Voleri",,56.99799,24.07713,https://saraksti.rigassatiksme.lv,,
1143,,"Voleri",,56.99872,24.07723,https://saraksti.rigassatiksme.lv,,
1146,,"Zilā iela",,57.01311,24.06934,https://saraksti.rigassatiksme.lv,,
1147,,"Zilā iela",,57.01163,24.07160,https://saraksti.rigassatiksme.lv,,
0106,,"Duntes iela",,56.99232,24.12559,https://saraksti.rigassatiksme.lv,,
8005,,"Laktas iela",,56.97934,24.13657,https://saraksti.rigassatiksme.lv,,
8006,,"Laktas iela",,56.97830,24.13601,https://saraksti.rigassatiksme.lv,,
0318,,"Ozolaine/Jūras medicīnas centrs",,56.98733,24.13300,https://saraksti.rigassatiksme.lv,,
0317,,"Ozolaine/Jūras medicīnas centrs",,56.98653,24.13385,https://saraksti.rigassatiksme.lv,,
0486,,"Tilta iela",,56.99243,24.12558,https://saraksti.rigassatiksme.lv,,
0482,,"Traumatoloģijas un ortopēdijas slimnīca",,56.98378,24.13604,https://saraksti.rigassatiksme.lv,,
0483,,"Traumatoloģijas un ortopēdijas slimnīca",,56.98292,24.13627,https://saraksti.rigassatiksme.lv,,
7992,,"Vītolu iela",,56.98891,24.13062,https://saraksti.rigassatiksme.lv,,
2016,,"Vītolu iela",,56.99035,24.12953,https://saraksti.rigassatiksme.lv,,
0445,,"Gustava Zemgala gatve",,56.96253,24.17099,https://saraksti.rigassatiksme.lv,,
0161,,"Ilūkstes iela",,56.95550,24.19729,https://saraksti.rigassatiksme.lv,,
0156,,"Ilūkstes iela",,56.95556,24.19890,https://saraksti.rigassatiksme.lv,,
0280,,"Mēbeļu nams",,56.95636,24.19119,https://saraksti.rigassatiksme.lv,,
0279,,"Mēbeļu nams",,56.95668,24.19113,https://saraksti.rigassatiksme.lv,,
0306,,"Nīcgales iela",,56.95969,24.17672,https://saraksti.rigassatiksme.lv,,
0371,,"Purvciems",,56.95433,24.20553,https://saraksti.rigassatiksme.lv,,
0372,,"Purvciems",,56.95478,24.20480,https://saraksti.rigassatiksme.lv,,
0309,,"Stirnu iela",,56.95899,24.18050,https://saraksti.rigassatiksme.lv,,
0450,,"Stirnu iela",,56.95860,24.18086,https://saraksti.rigassatiksme.lv,,
1165,,"Attīrīšanas iekārtas",,57.02888,23.99725,https://saraksti.rigassatiksme.lv,,
1177,,"Attīrīšanas iekārtas",,57.02955,23.99850,https://saraksti.rigassatiksme.lv,,
1168,,"Dzelmes iela",,57.01429,23.97749,https://saraksti.rigassatiksme.lv,,
1174,,"Dzelmes iela",,57.01455,23.97849,https://saraksti.rigassatiksme.lv,,
1163,,"Memmes pļava",,57.03509,24.01232,https://saraksti.rigassatiksme.lv,,
1179,,"Memmes pļava",,57.03500,24.01272,https://saraksti.rigassatiksme.lv,,
1166,,"Roņu iela",,57.02133,23.99277,https://saraksti.rigassatiksme.lv,,
1176,,"Roņu iela",,57.02156,23.99318,https://saraksti.rigassatiksme.lv,,
1169,,"Vētras iela",,57.01308,23.97513,https://saraksti.rigassatiksme.lv,,
1173,,"Vētras iela",,57.01293,23.97487,https://saraksti.rigassatiksme.lv,,
1167,,"Zēģeļu iela",,57.01789,23.98585,https://saraksti.rigassatiksme.lv,,
1175,,"Zēģeļu iela",,57.01768,23.98562,https://saraksti.rigassatiksme.lv,,
1164,,"Ziemeļupe",,57.03398,24.00362,https://saraksti.rigassatiksme.lv,,
1178,,"Ziemeļupe",,57.03422,24.00575,https://saraksti.rigassatiksme.lv,,
1236,,"Botāniskais dārzs",,56.94968,24.05440,https://saraksti.rigassatiksme.lv,,
1118,,"Botāniskais dārzs/Rīgas Stradiņa universitāte",,56.95204,24.05391,https://saraksti.rigassatiksme.lv,,
1126,,"Buļļu iela",,56.96695,24.05778,https://saraksti.rigassatiksme.lv,,
1235,,"Dārza iela/Rīgas Stradiņa universitāte",,56.95287,24.05353,https://saraksti.rigassatiksme.lv,,
1214,,"Dzirciema iela",,56.97797,24.05462,https://saraksti.rigassatiksme.lv,,
1212,,"Dzirciema iela 119",,56.97406,24.05583,https://saraksti.rigassatiksme.lv,,
1217,,"Dzirciema iela 119",,56.97404,24.05572,https://saraksti.rigassatiksme.lv,,
1233,,"Mazā Stacijas iela",,56.95958,24.05224,https://saraksti.rigassatiksme.lv,,
1215,,"Nordeka",,56.97681,24.05505,https://saraksti.rigassatiksme.lv,,
1119,,"Sēlpils iela/Donoru centrs",,56.95693,24.05248,https://saraksti.rigassatiksme.lv,,
1234,,"Sēlpils iela/Donoru centrs",,56.95615,24.05262,https://saraksti.rigassatiksme.lv,,
1124,,"Slokas iela",,56.96144,24.05387,https://saraksti.rigassatiksme.lv,,
0616,,"Vaidelotes iela",,56.96418,24.05568,https://saraksti.rigassatiksme.lv,,
0636,,"Vaidelotes iela",,56.96335,24.05526,https://saraksti.rigassatiksme.lv,,
2072,,"Dzirnavu iela",,56.94891,24.12561,https://saraksti.rigassatiksme.lv,,
1600,,"E.Birznieka-Upīša iela",,56.94864,24.12439,https://saraksti.rigassatiksme.lv,,
2071,,"Lāčplēša iela",,56.94978,24.13127,https://saraksti.rigassatiksme.lv,,
2075,,"Visvalža iela",,56.94917,24.12791,https://saraksti.rigassatiksme.lv,,
9090,,"Ē.Valtera iela",,56.94559,24.23705,https://saraksti.rigassatiksme.lv,,
0235,,"Langstiņi",,57.01010,24.32636,https://saraksti.rigassatiksme.lv,,
0234,,"Langstiņi",,57.01032,24.32652,https://saraksti.rigassatiksme.lv,,
0237,,"Lapsukalni",,56.98714,24.33781,https://saraksti.rigassatiksme.lv,,
0236,,"Lapsukalni",,56.98786,24.33776,https://saraksti.rigassatiksme.lv,,
0192,,"Mediķu iela",,57.00384,24.33165,https://saraksti.rigassatiksme.lv,,
0191,,"Mediķu iela",,57.00390,24.33180,https://saraksti.rigassatiksme.lv,,
0495,,"Upesciems",,56.98185,24.33610,https://saraksti.rigassatiksme.lv,,
0494,,"Upesciems",,56.98240,24.33804,https://saraksti.rigassatiksme.lv,,
0518,,"Ziemeļnieki",,56.99558,24.33508,https://saraksti.rigassatiksme.lv,,
0519,,"Ziemeļnieki",,56.99583,24.33522,https://saraksti.rigassatiksme.lv,,
7984,,"Elizabetes iela",,56.95825,24.10808,https://saraksti.rigassatiksme.lv,,
5464,,"K.Valdemāra iela",,56.95683,24.11296,https://saraksti.rigassatiksme.lv,,
0124,,"Emmas iela",,57.03368,24.11843,https://saraksti.rigassatiksme.lv,,
0108,,"Gāles iela",,57.03352,24.11855,https://saraksti.rigassatiksme.lv,,
0349,,"Vecmīlgrāvja 5.līnija",,57.03117,24.11383,https://saraksti.rigassatiksme.lv,,
0348,,"Vecmīlgrāvja 5.līnija",,57.03097,24.11365,https://saraksti.rigassatiksme.lv,,
0361,,"Aizsardzības akadēmija",,56.99379,24.17769,https://saraksti.rigassatiksme.lv,,
8074,,"Aizsardzības akadēmija",,56.99323,24.18080,https://saraksti.rigassatiksme.lv,,
0131,,"Krustabaznīcas iela",,56.99239,24.18576,https://saraksti.rigassatiksme.lv,,
4001,,"Krustabaznīcas iela",,56.99230,24.18705,https://saraksti.rigassatiksme.lv,,
0211,,"Ķīšezera iela",,56.99533,24.17228,https://saraksti.rigassatiksme.lv,,
0210,,"Ķīšezera iela",,56.99461,24.17310,https://saraksti.rigassatiksme.lv,,
0290,,"Meža prospekts",,57.00646,24.16541,https://saraksti.rigassatiksme.lv,,
0422,,"Saules dārzs",,57.00168,24.17047,https://saraksti.rigassatiksme.lv,,
0421,,"Saules dārzs",,57.00167,24.16992,https://saraksti.rigassatiksme.lv,,
0485,,"Sporta bāze",,57.00419,24.16809,https://saraksti.rigassatiksme.lv,,
0484,,"Sporta bāze",,57.00360,24.16865,https://saraksti.rigassatiksme.lv,,
0458,,"Sudrabu Edžus iela",,56.99821,24.17099,https://saraksti.rigassatiksme.lv,,
0457,,"Sudrabu Edžus iela",,56.99895,24.17039,https://saraksti.rigassatiksme.lv,,
8014,,"Daugavgrīvas cietoksnis",,57.04266,24.03565,https://saraksti.rigassatiksme.lv,,
1183,,"Daugavgrīvas cietoksnis",,57.04240,24.03555,https://saraksti.rigassatiksme.lv,,
0242,,"Lielvārdes iela",,56.96149,24.19829,https://saraksti.rigassatiksme.lv,,
0243,,"Lielvārdes iela",,56.96139,24.19753,https://saraksti.rigassatiksme.lv,,
1150,,"Silikātu iela",,57.02885,24.04646,https://saraksti.rigassatiksme.lv,,
1151,,"Silikātu iela",,57.02797,24.04679,https://saraksti.rigassatiksme.lv,,
0527,,"Slimnīca ""Gaiļezers""",,56.96802,24.23979,https://saraksti.rigassatiksme.lv,,
2118,,"Centrāltirgus",,56.94476,24.12039,https://saraksti.rigassatiksme.lv,,
7985,,"1.trolejbusu parks",,56.98780,24.12156,https://saraksti.rigassatiksme.lv,,
7986,,"1.trolejbusu parks",,56.98693,24.12113,https://saraksti.rigassatiksme.lv,,
0252,,"Lugažu iela",,56.97479,24.11199,https://saraksti.rigassatiksme.lv,,
0253,,"Lugažu iela",,56.97385,24.11100,https://saraksti.rigassatiksme.lv,,
0346,,"Pētersalas iela",,56.96866,24.10696,https://saraksti.rigassatiksme.lv,,
0347,,"Pētersalas iela",,56.96901,24.10708,https://saraksti.rigassatiksme.lv,,
0134,,"Rāmuļu iela",,56.98386,24.11947,https://saraksti.rigassatiksme.lv,,
0136,,"Rāmuļu iela",,56.98316,24.11860,https://saraksti.rigassatiksme.lv,,
0374,,"Rankas iela",,56.98015,24.11637,https://saraksti.rigassatiksme.lv,,
0375,,"Rankas iela",,56.97877,24.11502,https://saraksti.rigassatiksme.lv,,
0387,,"Rūpnīca ""RER""",,56.99090,24.12200,https://saraksti.rigassatiksme.lv,,
0388,,"Rūpnīca ""RER""",,56.99119,24.12231,https://saraksti.rigassatiksme.lv,,
9105,,"Čiekurkalna 3.šķērslīnija",,56.98730,24.16711,https://saraksti.rigassatiksme.lv,,
0428,,"Čiekurkalna ūdenstornis",,56.98466,24.15759,https://saraksti.rigassatiksme.lv,,
0473,,"Tēraudlietuves iela",,56.98264,24.15164,https://saraksti.rigassatiksme.lv,,
8050,,"Stūrmaņu iela",,57.03339,24.04856,https://saraksti.rigassatiksme.lv,,
8012,,"Stūrmaņu iela",,57.03402,24.04786,https://saraksti.rigassatiksme.lv,,
0079,,"Centrālā stacija",,56.94669,24.11825,https://saraksti.rigassatiksme.lv,,
0078,,"Centrāltirgus",,56.94498,24.12016,https://saraksti.rigassatiksme.lv,,
0078b,,"Centrāltirgus",,56.94451,24.12119,https://saraksti.rigassatiksme.lv,,
0113,,"Dzirnavu iela",,56.94196,24.12790,https://saraksti.rigassatiksme.lv,,
0149,,"Gogoļa iela",,56.94210,24.12950,https://saraksti.rigassatiksme.lv,,
1444,,"Zantes iela",,56.94418,24.01256,https://saraksti.rigassatiksme.lv,,
1445,,"Zantes iela",,56.94406,24.01157,https://saraksti.rigassatiksme.lv,,
1472,,"Acone",,56.91464,24.28569,https://saraksti.rigassatiksme.lv,,
1474,,"Acone",,56.91482,24.28417,https://saraksti.rigassatiksme.lv,,
1469,,"Ciemats",,56.91374,24.25791,https://saraksti.rigassatiksme.lv,,
1477,,"Ciemats",,56.91384,24.25660,https://saraksti.rigassatiksme.lv,,
1470,,"Dārziņi",,56.91408,24.26698,https://saraksti.rigassatiksme.lv,,
1476,,"Dārziņi",,56.91415,24.26562,https://saraksti.rigassatiksme.lv,,
1464,,"Granīta iela",,56.90859,24.21208,https://saraksti.rigassatiksme.lv,,
1466,,"Granīta iela 13",,56.91271,24.22946,https://saraksti.rigassatiksme.lv,,
1480,,"Granīta iela 13",,56.91279,24.22871,https://saraksti.rigassatiksme.lv,,
1552,,"Granīta iela 5",,56.91250,24.22399,https://saraksti.rigassatiksme.lv,,
1553,,"Granīta iela 5",,56.91259,24.22260,https://saraksti.rigassatiksme.lv,,
1482,,"Krustpils iela",,56.90887,24.21221,https://saraksti.rigassatiksme.lv,,
1465,,"Malēju iela",,56.91169,24.21712,https://saraksti.rigassatiksme.lv,,
1481,,"Malēju iela",,56.91161,24.21666,https://saraksti.rigassatiksme.lv,,
1467,,"Rožkalni",,56.91299,24.23725,https://saraksti.rigassatiksme.lv,,
1479,,"Rožkalni",,56.91306,24.23599,https://saraksti.rigassatiksme.lv,,
1468,,"Stūraiņu iela",,56.91327,24.24495,https://saraksti.rigassatiksme.lv,,
1478,,"Stūraiņu iela",,56.91338,24.24430,https://saraksti.rigassatiksme.lv,,
1473,,"TEC- 2",,56.91503,24.29088,https://saraksti.rigassatiksme.lv,,
1471,,"TEC- 2 pārvalde",,56.91439,24.27648,https://saraksti.rigassatiksme.lv,,
1475,,"TEC- 2 pārvalde",,56.91445,24.27410,https://saraksti.rigassatiksme.lv,,
2104,,"Graudu iela",,56.91135,24.10248,https://saraksti.rigassatiksme.lv,,
2106,,"Līvciema iela",,56.90866,24.09723,https://saraksti.rigassatiksme.lv,,
2109,,"Līvciema iela",,56.90931,24.09878,https://saraksti.rigassatiksme.lv,,
0085,,"Čiekurkalna stacija",,56.97878,24.16345,https://saraksti.rigassatiksme.lv,,
0086,,"Čiekurkalna stacija",,56.97849,24.16325,https://saraksti.rigassatiksme.lv,,
5133,,"Ģimnastikas iela",,56.91946,24.07416,https://saraksti.rigassatiksme.lv,,
0054,,"Biķernieku iela",,56.95891,24.23818,https://saraksti.rigassatiksme.lv,,
0151,,"Hipokrāta iela",,56.95979,24.23837,https://saraksti.rigassatiksme.lv,,
0542,,"Mežciema pamatskola",,56.96243,24.23852,https://saraksti.rigassatiksme.lv,,
0543,,"Mežciema pamatskola",,56.96334,24.23874,https://saraksti.rigassatiksme.lv,,
8030,,"Mežciems",,56.97074,24.24280,https://saraksti.rigassatiksme.lv,,
0528,,"Slimnīca ""Gaiļezers""",,56.96683,24.24017,https://saraksti.rigassatiksme.lv,,
7988,,"Slimnīca ""Gaiļezers""",,56.96836,24.24142,https://saraksti.rigassatiksme.lv,,
0109,,"Stacionārs ""Biķernieki""",,56.96643,24.19896,https://saraksti.rigassatiksme.lv,,
0446,,"Stārķu iela",,56.96550,24.16678,https://saraksti.rigassatiksme.lv,,
1170,,"Pludmale",,57.01663,23.96983,https://saraksti.rigassatiksme.lv,,
1172,,"Pludmale",,57.01605,23.97139,https://saraksti.rigassatiksme.lv,,
0107,,"Dzelzavas iela",,56.95384,24.19930,https://saraksti.rigassatiksme.lv,,
0476,,"Sesku iela",,56.94518,24.19585,https://saraksti.rigassatiksme.lv,,
0479,,"Sesku iela",,56.94719,24.19604,https://saraksti.rigassatiksme.lv,,
0159,,"Varavīksnes gatve",,56.95340,24.19895,https://saraksti.rigassatiksme.lv,,
0157,,"Zemes iela",,56.94246,24.19548,https://saraksti.rigassatiksme.lv,,
5030,,"Āvas",,56.92921,24.31668,https://saraksti.rigassatiksme.lv,,
5031,,"Āvas",,56.92978,24.31545,https://saraksti.rigassatiksme.lv,,
5062,,"Brasliņas",,56.93344,24.30794,https://saraksti.rigassatiksme.lv,,
5063,,"Brasliņas",,56.93386,24.30760,https://saraksti.rigassatiksme.lv,,
5143,,"Institūts",,56.94281,24.28446,https://saraksti.rigassatiksme.lv,,
5142,,"Institūts",,56.94311,24.28369,https://saraksti.rigassatiksme.lv,,
5406,,"Ulbroka",,56.94052,24.29210,https://saraksti.rigassatiksme.lv,,
2086,,"Latvijas Universitāte",,56.95096,24.11542,https://saraksti.rigassatiksme.lv,,
2067,,"J.Asara iela",,56.95625,24.15230,https://saraksti.rigassatiksme.lv,,
2068,,"Lienes iela",,56.95377,24.14677,https://saraksti.rigassatiksme.lv,,
2078,,"Lienes iela",,56.95397,24.14748,https://saraksti.rigassatiksme.lv,,
0536,,"Dārziņu 29.līnija",,56.86186,24.27614,https://saraksti.rigassatiksme.lv,,
0535,,"Dārziņu 29.līnija",,56.86192,24.27634,https://saraksti.rigassatiksme.lv,,
0539,,"Dārziņu 38.līnija",,56.86142,24.28424,https://saraksti.rigassatiksme.lv,,
0096,,"Jāņogu iela",,56.86296,24.26872,https://saraksti.rigassatiksme.lv,,
0123,,"Āliņģu iela",,57.03527,24.11839,https://saraksti.rigassatiksme.lv,,
0125,,"Āliņģu iela",,57.03524,24.11819,https://saraksti.rigassatiksme.lv,,
0355,,"Jaunciema 1.šķērslīnija",,57.05048,24.17211,https://saraksti.rigassatiksme.lv,,
0356,,"Jaunciema 1.šķērslīnija",,57.05068,24.17222,https://saraksti.rigassatiksme.lv,,
0102,,"Jaunciema 10.šķērslīnija",,57.03184,24.18769,https://saraksti.rigassatiksme.lv,,
0103,,"Jaunciema 10.šķērslīnija",,57.03204,24.18777,https://saraksti.rigassatiksme.lv,,
0133,,"Jaunciema 2.šķērslīnija",,57.04570,24.17339,https://saraksti.rigassatiksme.lv,,
0135,,"Jaunciema 2.šķērslīnija",,57.04600,24.17357,https://saraksti.rigassatiksme.lv,,
0083,,"Jaunciema 4.šķērslīnija",,57.04173,24.17343,https://saraksti.rigassatiksme.lv,,
0084,,"Jaunciema 4.šķērslīnija",,57.04245,24.17345,https://saraksti.rigassatiksme.lv,,
0501,,"Jaunciema 6.šķērslīnija",,57.03949,24.17524,https://saraksti.rigassatiksme.lv,,
0508,,"Jaunciema 6.šķērslīnija",,57.03863,24.17563,https://saraksti.rigassatiksme.lv,,
0118,,"Jaunciema gatve 233",,57.04323,24.11498,https://saraksti.rigassatiksme.lv,,
0119,,"Jaunciema gatve 233",,57.04326,24.11477,https://saraksti.rigassatiksme.lv,,
0184,,"Kalēji",,57.05250,24.13859,https://saraksti.rigassatiksme.lv,,
0183,,"Kalēji",,57.05261,24.13743,https://saraksti.rigassatiksme.lv,,
0212,,"Klipiņas",,57.01292,24.23224,https://saraksti.rigassatiksme.lv,,
0213,,"Klipiņas",,57.01283,24.23243,https://saraksti.rigassatiksme.lv,,
0226,,"Kūdras bāze",,57.00451,24.25212,https://saraksti.rigassatiksme.lv,,
0225,,"Kūdras bāze",,57.00453,24.25171,https://saraksti.rigassatiksme.lv,,
0293,,"Langa",,57.05277,24.14381,https://saraksti.rigassatiksme.lv,,
0294,,"Langa",,57.05293,24.14477,https://saraksti.rigassatiksme.lv,,
0247,,"Līgeri",,57.05139,24.12800,https://saraksti.rigassatiksme.lv,,
0246,,"Līgeri",,57.05100,24.12716,https://saraksti.rigassatiksme.lv,,
0475,,"Mīlgrāvja tilts",,57.03192,24.13409,https://saraksti.rigassatiksme.lv,,
0474,,"Mīlgrāvja tilts",,57.03101,24.13559,https://saraksti.rigassatiksme.lv,,
0295,,"Milnas",,57.00920,24.24367,https://saraksti.rigassatiksme.lv,,
0296,,"Milnas",,57.00925,24.24338,https://saraksti.rigassatiksme.lv,,
0072,,"Niedru iela",,57.04568,24.11969,https://saraksti.rigassatiksme.lv,,
0073,,"Niedru iela",,57.04537,24.11905,https://saraksti.rigassatiksme.lv,,
0319,,"Ozoli",,57.04830,24.12372,https://saraksti.rigassatiksme.lv,,
0320,,"Ozoli",,57.04877,24.12395,https://saraksti.rigassatiksme.lv,,
0322,,"Ozolkalni",,57.01185,24.22056,https://saraksti.rigassatiksme.lv,,
0321,,"Ozolkalni",,57.01176,24.22090,https://saraksti.rigassatiksme.lv,,
0068,,"Pagrieziens uz Bukultiem",,57.00367,24.25923,https://saraksti.rigassatiksme.lv,,
0069,,"Pagrieziens uz Bukultiem",,57.00360,24.25918,https://saraksti.rigassatiksme.lv,,
0328,,"Pagrieziens uz Carnikavu",,57.05291,24.15608,https://saraksti.rigassatiksme.lv,,
0329,,"Pagrieziens uz Carnikavu",,57.05299,24.15394,https://saraksti.rigassatiksme.lv,,
0185,,"Pagrieziens uz Jaunciema kapiem",,57.03660,24.18448,https://saraksti.rigassatiksme.lv,,
0186,,"Pagrieziens uz Jaunciema kapiem",,57.03696,24.18279,https://saraksti.rigassatiksme.lv,,
0460,,"Suži",,57.01859,24.20795,https://saraksti.rigassatiksme.lv,,
8004,,"Suži",,57.01883,24.20816,https://saraksti.rigassatiksme.lv,,
0517,,"Ziemeļblāzma",,57.03941,24.11285,https://saraksti.rigassatiksme.lv,,
0516,,"Ziemeļblāzma",,57.03890,24.11311,https://saraksti.rigassatiksme.lv,,
0522,,"Zundagi",,57.05257,24.16823,https://saraksti.rigassatiksme.lv,,
0521,,"Zundagi",,57.05236,24.16941,https://saraksti.rigassatiksme.lv,,
1266,,"Bieķensalas iela",,56.93101,24.09869,https://saraksti.rigassatiksme.lv,,
1267,,"Bieķensalas iela",,56.93021,24.09775,https://saraksti.rigassatiksme.lv,,
2050,,"Jelgavas iela",,56.92367,24.09030,https://saraksti.rigassatiksme.lv,,
1265,,"Satiksmes iela",,56.92693,24.09296,https://saraksti.rigassatiksme.lv,,
1268,,"Satiksmes iela",,56.92675,24.09276,https://saraksti.rigassatiksme.lv,,
2051,,"Vienības gatve",,56.92356,24.09001,https://saraksti.rigassatiksme.lv,,
0441,,"Zemitānu stacija",,56.96478,24.15670,https://saraksti.rigassatiksme.lv,,
0443,,"Zemitānu stacija",,56.96495,24.15611,https://saraksti.rigassatiksme.lv,,
0052,,"Bērnu slimnīca ""Gaiļezers""",,56.95877,24.25277,https://saraksti.rigassatiksme.lv,,
0053,,"Bērnu slimnīca ""Gaiļezers""",,56.95977,24.25302,https://saraksti.rigassatiksme.lv,,
0363,,"Ciemupes iela",,56.98800,24.24451,https://saraksti.rigassatiksme.lv,,
0177,,"Jugla",,56.97539,24.25444,https://saraksti.rigassatiksme.lv,,
0176,,"Jugla",,56.97657,24.25453,https://saraksti.rigassatiksme.lv,,
0339,,"Pāles iela",,56.98676,24.24812,https://saraksti.rigassatiksme.lv,,
0338,,"Pāles iela",,56.98531,24.24798,https://saraksti.rigassatiksme.lv,,
0165,,"Strazdumuižas vidusskola",,56.98258,24.25132,https://saraksti.rigassatiksme.lv,,
0166,,"Strazdumuižas vidusskola",,56.98277,24.25069,https://saraksti.rigassatiksme.lv,,
0649,,"Irlavas iela",,56.94342,24.02853,https://saraksti.rigassatiksme.lv,,
0650,,"Mikus iela",,56.94300,24.02774,https://saraksti.rigassatiksme.lv,,
0645,,"Zasulauka depo",,56.94510,24.03437,https://saraksti.rigassatiksme.lv,,
0646,,"Zasulauka depo",,56.94509,24.03401,https://saraksti.rigassatiksme.lv,,
1457,,"Anniņmuižas parks",,56.95356,24.00995,https://saraksti.rigassatiksme.lv,,
1456,,"Anniņmuižas parks",,56.95348,24.01100,https://saraksti.rigassatiksme.lv,,
1452,,"Beberbeķu iela",,56.95371,23.97203,https://saraksti.rigassatiksme.lv,,
1551,,"Beberbeķu iela",,56.95394,23.97189,https://saraksti.rigassatiksme.lv,,
1042,,"Botāniskais dārzs",,56.95139,24.05274,https://saraksti.rigassatiksme.lv,,
1090,,"Botāniskais dārzs",,56.95119,24.05514,https://saraksti.rigassatiksme.lv,,
1078,,"Dubultu iela",,56.95343,24.00414,https://saraksti.rigassatiksme.lv,,
1083,,"Dubultu iela",,56.95341,24.00551,https://saraksti.rigassatiksme.lv,,
1449,,"Ērkšķu iela",,56.95349,23.99015,https://saraksti.rigassatiksme.lv,,
1455,,"Ērkšķu iela",,56.95344,23.99078,https://saraksti.rigassatiksme.lv,,
1460,,"Imantas 7.līnija",,56.95227,24.02298,https://saraksti.rigassatiksme.lv,,
1461,,"Imantas 7.līnija",,56.95230,24.02425,https://saraksti.rigassatiksme.lv,,
1462,,"Kooperatīva iela",,56.95220,24.02931,https://saraksti.rigassatiksme.lv,,
1463,,"Kooperatīva iela",,56.95213,24.03037,https://saraksti.rigassatiksme.lv,,
1043,,"Kurzemes prospekts",,56.95214,24.03689,https://saraksti.rigassatiksme.lv,,
1089,,"Kurzemes prospekts",,56.95204,24.03651,https://saraksti.rigassatiksme.lv,,
1451,,"Ķiburgas iela",,56.95374,23.97869,https://saraksti.rigassatiksme.lv,,
1453,,"Ķiburgas iela",,56.95366,23.97973,https://saraksti.rigassatiksme.lv,,
1450,,"Lazdu iela",,56.95359,23.98530,https://saraksti.rigassatiksme.lv,,
1454,,"Lazdu iela",,56.95359,23.98307,https://saraksti.rigassatiksme.lv,,
1458,,"Muižas iela",,56.95310,24.01623,https://saraksti.rigassatiksme.lv,,
1459,,"Muižas iela",,56.95293,24.01682,https://saraksti.rigassatiksme.lv,,
1079,,"Zolitūdes iela",,56.95325,23.99809,https://saraksti.rigassatiksme.lv,,
1082,,"Zolitūdes iela",,56.95323,23.99900,https://saraksti.rigassatiksme.lv,,
5272,,"Darbnīcas",,56.95245,23.91344,https://saraksti.rigassatiksme.lv,,
0020,,"Alojas iela",,56.96757,24.13079,https://saraksti.rigassatiksme.lv,,
0027,,"Aristida Briāna iela",,56.96357,24.12596,https://saraksti.rigassatiksme.lv,,
0067,,"Bruņinieku iela",,56.96093,24.12170,https://saraksti.rigassatiksme.lv,,
0066,,"Bruņinieku iela",,56.96178,24.12284,https://saraksti.rigassatiksme.lv,,
0122,,"E.Melngaiļa iela",,56.95923,24.11856,https://saraksti.rigassatiksme.lv,,
0120,,"Elizabetes iela",,56.95611,24.11258,https://saraksti.rigassatiksme.lv,,
0128,,"Ēveles iela",,56.97069,24.13330,https://saraksti.rigassatiksme.lv,,
0126,,"Ēveles iela",,56.96898,24.13173,https://saraksti.rigassatiksme.lv,,
0153,,"Ierēdņu iela",,56.97434,24.13557,https://saraksti.rigassatiksme.lv,,
0152,,"Ierēdņu iela",,56.97332,24.13517,https://saraksti.rigassatiksme.lv,,
0611,,"Ķīpsala",,56.94991,24.08708,https://saraksti.rigassatiksme.lv,,
0642,,"Ķīpsala",,56.94921,24.08672,https://saraksti.rigassatiksme.lv,,
0233,,"Lāčplēša iela",,56.95818,24.11688,https://saraksti.rigassatiksme.lv,,
0259,,"Mākslas muzejs",,56.95565,24.11133,https://saraksti.rigassatiksme.lv,,
0610,,"Nacionālais teātris",,56.95377,24.10646,https://saraksti.rigassatiksme.lv,,
0340,,"Palīdzības iela",,56.96474,24.12758,https://saraksti.rigassatiksme.lv,,
5384,,"Valsts arhīvs",,56.94647,24.07532,https://saraksti.rigassatiksme.lv,,
1094,,"Valsts arhīvs",,56.94646,24.07594,https://saraksti.rigassatiksme.lv,,
0643,,"Zigfrīda Annas Meierovica bulvāris",,56.95393,24.10706,https://saraksti.rigassatiksme.lv,,
1517,,"Sunīši",,56.97193,24.37665,https://saraksti.rigassatiksme.lv,,
0275,,"Mazā Kalna iela",,56.94232,24.14533,https://saraksti.rigassatiksme.lv,,
5034,,"Baložu iela",,56.94490,24.07201,https://saraksti.rigassatiksme.lv,,
5288,,"Dreiliņu iela",,56.94173,24.06201,https://saraksti.rigassatiksme.lv,,
5289,,"Dreiliņu iela",,56.94176,24.06249,https://saraksti.rigassatiksme.lv,,
1413,,"Kalnciema iela",,56.93565,24.03877,https://saraksti.rigassatiksme.lv,,
1423,,"Kalnciema iela",,56.93350,24.03176,https://saraksti.rigassatiksme.lv,,
1534,,"Melnsila iela",,56.94358,24.06877,https://saraksti.rigassatiksme.lv,,
1548,,"Melnsila iela",,56.94357,24.06903,https://saraksti.rigassatiksme.lv,,
1039,,"Slokas iela",,56.94575,24.07543,https://saraksti.rigassatiksme.lv,,
1424,,"Ventspils iela",,56.93523,24.03735,https://saraksti.rigassatiksme.lv,,
0121,,"Elizabetes iela",,56.95796,24.10619,https://saraksti.rigassatiksme.lv,,
2120,,"Medicīnas muzejs",,56.95725,24.10730,https://saraksti.rigassatiksme.lv,,
0012,,"Brūkleņu iela",,56.91912,24.05066,https://saraksti.rigassatiksme.lv,,
5065,,"Brūkleņu iela",,56.91931,24.05191,https://saraksti.rigassatiksme.lv,,
5189,,"Lamberti",,56.91755,24.02548,https://saraksti.rigassatiksme.lv,,
5188,,"Lamberti",,56.91760,24.02736,https://saraksti.rigassatiksme.lv,,
5376,,"Mārupes ģimnāzija",,56.91824,24.03607,https://saraksti.rigassatiksme.lv,,
5375,,"Mārupes ģimnāzija",,56.91825,24.03732,https://saraksti.rigassatiksme.lv,,
5221,,"Mežotnes iela",,56.92121,24.06502,https://saraksti.rigassatiksme.lv,,
5220,,"Mežotnes iela",,56.92100,24.06498,https://saraksti.rigassatiksme.lv,,
5409,,"Upesgrīvas iela",,56.91871,24.04289,https://saraksti.rigassatiksme.lv,,
5410,,"Upesgrīvas iela",,56.91856,24.04239,https://saraksti.rigassatiksme.lv,,
2037,,"Kapseļu iela",,56.94305,24.07130,https://saraksti.rigassatiksme.lv,,
1153,,"Bolderājas Jaunā pamatskola",,57.03568,24.04439,https://saraksti.rigassatiksme.lv,,
8013,,"Bolderājas Jaunā pamatskola",,57.03531,24.04559,https://saraksti.rigassatiksme.lv,,
8040,,"Bolderājas tilts",,57.03736,24.03970,https://saraksti.rigassatiksme.lv,,
1155,,"Bolderājas tilts",,57.03668,24.04068,https://saraksti.rigassatiksme.lv,,
6454,,"Beberbeķu iela",,56.94969,23.96132,https://saraksti.rigassatiksme.lv,,
8085,,"Beberbeķu iela",,56.94928,23.96092,https://saraksti.rigassatiksme.lv,,
5132,,"Gaviezes iela",,56.94870,23.98874,https://saraksti.rigassatiksme.lv,,
5131,,"Gaviezes iela",,56.94782,23.99001,https://saraksti.rigassatiksme.lv,,
5218,,"Mežmalas iela",,56.94359,23.99660,https://saraksti.rigassatiksme.lv,,
5219,,"Mežmalas iela",,56.94376,23.99573,https://saraksti.rigassatiksme.lv,,
1263,,"Mūkusalas rotācijas aplis",,56.92330,24.10427,https://saraksti.rigassatiksme.lv,,
1276,,"Mūkusalas rotācijas aplis",,56.92213,24.10354,https://saraksti.rigassatiksme.lv,,
1359,,"Telts iela",,56.91845,24.08924,https://saraksti.rigassatiksme.lv,,
1361,,"Telts iela",,56.91902,24.09121,https://saraksti.rigassatiksme.lv,,
5450,,"Zolitūdes iela",,56.92942,24.01646,https://saraksti.rigassatiksme.lv,,
5449,,"Zolitūdes iela",,56.92897,24.01584,https://saraksti.rigassatiksme.lv,,
0193,,"Kastrānes iela",,56.96965,24.17812,https://saraksti.rigassatiksme.lv,,
0380,,"Raunas iela",,56.96867,24.17765,https://saraksti.rigassatiksme.lv,,
1504,,"Katlakalna iela",,56.93063,24.19845,https://saraksti.rigassatiksme.lv,,
1602,,"Katlakalna iela",,56.93027,24.19908,https://saraksti.rigassatiksme.lv,,
0621,,"6.autobusu parks",,56.97180,24.03138,https://saraksti.rigassatiksme.lv,,
0631,,"6.autobusu parks",,56.97230,24.03165,https://saraksti.rigassatiksme.lv,,
9082,,"Anniņmuižas vidusskola",,56.96254,24.02337,https://saraksti.rigassatiksme.lv,,
1194,,"Bumbu kalniņš",,57.00249,24.02761,https://saraksti.rigassatiksme.lv,,
1195,,"Bumbu kalniņš",,57.00324,24.02751,https://saraksti.rigassatiksme.lv,,
0622,,"Gaiļi",,56.97606,24.03511,https://saraksti.rigassatiksme.lv,,
0630,,"Gaiļi",,56.97492,24.03392,https://saraksti.rigassatiksme.lv,,
1192,,"Jaunie Bolderājas kapi",,57.01715,24.01762,https://saraksti.rigassatiksme.lv,,
1193,,"Jaunie Bolderājas kapi",,57.01671,24.01797,https://saraksti.rigassatiksme.lv,,
0623,,"Kleistu iela 37",,56.97889,24.03557,https://saraksti.rigassatiksme.lv,,
0629,,"Kleistu iela 37",,56.97801,24.03554,https://saraksti.rigassatiksme.lv,,
1666,,"Liepezers",,56.98439,24.00135,https://saraksti.rigassatiksme.lv,,
1667,,"Liepezers",,56.98394,23.99998,https://saraksti.rigassatiksme.lv,,
0620,,"Mellužu iela",,56.96666,24.02697,https://saraksti.rigassatiksme.lv,,
0632,,"Mellužu iela",,56.96696,24.02704,https://saraksti.rigassatiksme.lv,,
1664,,"Mežāres",,56.97464,23.96883,https://saraksti.rigassatiksme.lv,,
1665,,"Mežāres",,56.97644,23.96942,https://saraksti.rigassatiksme.lv,,
1198,,"Pagrieziens uz Kleistiem",,56.98431,24.03281,https://saraksti.rigassatiksme.lv,,
1199,,"Pagrieziens uz Kleistiem",,56.98294,24.03337,https://saraksti.rigassatiksme.lv,,
1708,,"Pumpas",,56.97838,23.97450,https://saraksti.rigassatiksme.lv,,
1709,,"Pumpas",,56.97872,23.97596,https://saraksti.rigassatiksme.lv,,
1662,,"Spilve",,56.96453,23.96273,https://saraksti.rigassatiksme.lv,,
1663,,"Spilve",,56.96470,23.96323,https://saraksti.rigassatiksme.lv,,
1196,,"Spilves pļavas",,56.99789,24.02935,https://saraksti.rigassatiksme.lv,,
1197,,"Spilves pļavas",,56.99717,24.02943,https://saraksti.rigassatiksme.lv,,
0385,,"Klijānu iela",,56.97452,24.14460,https://saraksti.rigassatiksme.lv,,
8026,,"Atpūtas centrs ""Lido""",,56.92708,24.15909,https://saraksti.rigassatiksme.lv,,
0162,,"Atpūtas centrs ""Lido""",,56.92439,24.16254,https://saraksti.rigassatiksme.lv,,
8028,,"Balvu iela",,56.93282,24.14481,https://saraksti.rigassatiksme.lv,,
5397,,"Grēdu iela",,56.93106,24.15181,https://saraksti.rigassatiksme.lv,,
5002,,"Toma iela/Mols",,56.93412,24.14278,https://saraksti.rigassatiksme.lv,,
0040,,"Baltāsbaznīcas iela",,57.03562,24.09465,https://saraksti.rigassatiksme.lv,,
2034,,"Melnsila iela",,56.94426,24.06647,https://saraksti.rigassatiksme.lv,,
1488,,"Depo",,56.91177,24.20589,https://saraksti.rigassatiksme.lv,,
1489,,"Depo",,56.91243,24.20486,https://saraksti.rigassatiksme.lv,,
1484,,"Dzelzceļa pārbrauktuve",,56.91806,24.19679,https://saraksti.rigassatiksme.lv,,
1506,,"Katlakalna iela",,56.92706,24.18679,https://saraksti.rigassatiksme.lv,,
1507,,"Katlakalna iela",,56.92502,24.18799,https://saraksti.rigassatiksme.lv,,
1604,,"Krustpils iela",,56.92931,24.18302,https://saraksti.rigassatiksme.lv,,
1505,,"Krustpils iela 53",,56.91978,24.19412,https://saraksti.rigassatiksme.lv,,
1485,,"Krustpils iela 53",,56.92098,24.19324,https://saraksti.rigassatiksme.lv,,
1605,,"Lubānas iela",,56.92976,24.18313,https://saraksti.rigassatiksme.lv,,
1483,,"Rājumsila iela",,56.91484,24.20096,https://saraksti.rigassatiksme.lv,,
1487,,"Rājumsila iela",,56.91519,24.20029,https://saraksti.rigassatiksme.lv,,
1407,,"Ozolnieku iela",,56.93000,24.05838,https://saraksti.rigassatiksme.lv,,
1408,,"Ozolnieku iela",,56.93085,24.05715,https://saraksti.rigassatiksme.lv,,
0025,,"Aptiekas iela",,56.99897,24.11674,https://saraksti.rigassatiksme.lv,,
0429,,"Kundziņsala",,57.00107,24.10583,https://saraksti.rigassatiksme.lv,,
1024,,"Airītes iela",,56.95932,23.99724,https://saraksti.rigassatiksme.lv,,
1608,,"Airītes iela",,56.95992,23.99775,https://saraksti.rigassatiksme.lv,,
0619,,"ATC ""Latina""",,56.96343,24.03021,https://saraksti.rigassatiksme.lv,,
0633,,"ATC ""Latina""",,56.96326,24.02967,https://saraksti.rigassatiksme.lv,,
1080,,"Ceriņu iela",,56.95561,23.99773,https://saraksti.rigassatiksme.lv,,
1081,,"Ceriņu iela",,56.95681,23.99734,https://saraksti.rigassatiksme.lv,,
1059,,"Dammes iela",,56.96811,24.00956,https://saraksti.rigassatiksme.lv,,
1065,,"Dammes iela",,56.96851,24.01114,https://saraksti.rigassatiksme.lv,,
1060,,"Imanta 4",,56.96485,24.00227,https://saraksti.rigassatiksme.lv,,
1064,,"Imanta 4",,56.96549,24.00436,https://saraksti.rigassatiksme.lv,,
1062c,,"Imantas D/P",,56.96013,23.99620,https://saraksti.rigassatiksme.lv,,
1088,,"Jūrmalas gatve",,56.95367,24.03464,https://saraksti.rigassatiksme.lv,,
1057,,"Kleistu iela",,56.96656,24.02311,https://saraksti.rigassatiksme.lv,,
1067,,"Kleistu iela",,56.96659,24.02210,https://saraksti.rigassatiksme.lv,,
1061,,"Pagrieziens uz Babīti",,56.96199,23.99872,https://saraksti.rigassatiksme.lv,,
1063,,"Pagrieziens uz Babīti",,56.96292,23.99980,https://saraksti.rigassatiksme.lv,,
1044,,"Progresa iela",,56.95543,24.03528,https://saraksti.rigassatiksme.lv,,
1045,,"Progresa iela",,56.95789,24.03530,https://saraksti.rigassatiksme.lv,,
1058,,"Rigondas gatve",,56.96903,24.01752,https://saraksti.rigassatiksme.lv,,
1066,,"Rigondas gatve",,56.96855,24.01770,https://saraksti.rigassatiksme.lv,,
1046,,"Sudrabkalniņš",,56.96097,24.03524,https://saraksti.rigassatiksme.lv,,
1069,,"Sudrabkalniņš",,56.95992,24.03475,https://saraksti.rigassatiksme.lv,,
0209,,"Ķīšezera iela",,56.99521,24.17175,https://saraksti.rigassatiksme.lv,,
0406,,"Rusova iela/Valsts ieņēmumu dienests",,56.98874,24.16443,https://saraksti.rigassatiksme.lv,,
0405,,"Rusova iela/Valsts ieņēmumu dienests",,56.98856,24.16407,https://saraksti.rigassatiksme.lv,,
1102,,"Maskavas iela",,56.94052,24.12997,https://saraksti.rigassatiksme.lv,,
0036,,"Lomonosova iela",,56.93915,24.15537,https://saraksti.rigassatiksme.lv,,
0498,,"Vagonu parks",,56.94230,24.15512,https://saraksti.rigassatiksme.lv,,
0099,,"Daugavpils iela",,56.94171,24.13979,https://saraksti.rigassatiksme.lv,,
1127,,"Cementa iela",,56.96937,24.05913,https://saraksti.rigassatiksme.lv,,
1231,,"Cementa iela",,56.96870,24.05852,https://saraksti.rigassatiksme.lv,,
1128,,"Spilves iela",,56.97170,24.06499,https://saraksti.rigassatiksme.lv,,
1230,,"Spilves iela",,56.97159,24.06331,https://saraksti.rigassatiksme.lv,,
1188,,"Buļļupe",,57.02556,24.02562,https://saraksti.rigassatiksme.lv,,
1189,,"Buļļupe",,57.02539,24.02555,https://saraksti.rigassatiksme.lv,,
1190,,"Lielā iela",,57.02211,24.01856,https://saraksti.rigassatiksme.lv,,
1191,,"Lielā iela",,57.02200,24.01860,https://saraksti.rigassatiksme.lv,,
1546,,"Kauguru iela",,56.93618,24.04649,https://saraksti.rigassatiksme.lv,,
1545a,,"Upesgrīvas iela/ Spice",,56.93148,24.03661,https://saraksti.rigassatiksme.lv,,
8021,,"Upesgrīvas iela/ Spice",,56.93079,24.03431,https://saraksti.rigassatiksme.lv,,
5328,,"Ventas iela",,56.93538,24.04401,https://saraksti.rigassatiksme.lv,,
1701,,"80.vidusskola",,56.95858,24.20383,https://saraksti.rigassatiksme.lv,,
1702,,"80.vidusskola",,56.95924,24.20304,https://saraksti.rigassatiksme.lv,,
2100,,"Lielvārdes iela",,56.97632,24.18812,https://saraksti.rigassatiksme.lv,,
0110,,"Stacionārs ""Biķernieki""",,56.96515,24.19910,https://saraksti.rigassatiksme.lv,,
2092,,"Zemitāna laukums",,56.97782,24.18625,https://saraksti.rigassatiksme.lv,,
0010,,"Brūkleņu iela",,56.92261,24.05276,https://saraksti.rigassatiksme.lv,,
0011,,"Brūkleņu iela",,56.92220,24.05221,https://saraksti.rigassatiksme.lv,,
1374,,"Mārupes iela",,56.93183,24.07121,https://saraksti.rigassatiksme.lv,,
1375,,"Mārupes iela",,56.93187,24.07105,https://saraksti.rigassatiksme.lv,,
8023,,"Mežotnes iela",,56.92407,24.05535,https://saraksti.rigassatiksme.lv,,
8063,,"Mežotnes iela",,56.92479,24.05641,https://saraksti.rigassatiksme.lv,,
1376,,"Paula Stradiņa slimnīca",,56.92968,24.06534,https://saraksti.rigassatiksme.lv,,
1377,,"Paula Stradiņa slimnīca",,56.92952,24.06474,https://saraksti.rigassatiksme.lv,,
1378,,"Raudas iela",,56.92647,24.06131,https://saraksti.rigassatiksme.lv,,
1379,,"Raudas iela",,56.92658,24.06158,https://saraksti.rigassatiksme.lv,,
0100,,"Daugmales stacija",,56.91003,24.19949,https://saraksti.rigassatiksme.lv,,
0101,,"Daugmales stacija",,56.91068,24.19835,https://saraksti.rigassatiksme.lv,,
0155,,"Ikšķiles iela",,56.90482,24.20966,https://saraksti.rigassatiksme.lv,,
0154,,"Ikšķiles iela",,56.90477,24.21006,https://saraksti.rigassatiksme.lv,,
0248,,"Lokomotīves iela",,56.90799,24.20377,https://saraksti.rigassatiksme.lv,,
0249,,"Lokomotīves iela",,56.90786,24.20378,https://saraksti.rigassatiksme.lv,,
0502,,"Mūzikas skola",,56.91559,24.18970,https://saraksti.rigassatiksme.lv,,
0402,,"Rušonu iela",,56.91646,24.18842,https://saraksti.rigassatiksme.lv,,
0425,,"Šķirotavas stacija",,56.90260,24.21408,https://saraksti.rigassatiksme.lv,,
0426,,"Šķirotavas stacija",,56.90313,24.21333,https://saraksti.rigassatiksme.lv,,
0035,,"Lauvas iela",,56.93810,24.15677,https://saraksti.rigassatiksme.lv,,
0381,,"Rēznas iela",,56.93463,24.16147,https://saraksti.rigassatiksme.lv,,
0382,,"Rēznas iela",,56.93559,24.16022,https://saraksti.rigassatiksme.lv,,
0158,,"Ilūkstes iela",,56.93197,24.19692,https://saraksti.rigassatiksme.lv,,
0160,,"Ilūkstes iela",,56.93170,24.19401,https://saraksti.rigassatiksme.lv,,
0042,,"Jukuma Vācieša iela",,56.93163,24.21169,https://saraksti.rigassatiksme.lv,,
0043,,"Jukuma Vācieša iela",,56.93158,24.20996,https://saraksti.rigassatiksme.lv,,
0359,,"Katlakalna iela",,56.93173,24.20181,https://saraksti.rigassatiksme.lv,,
0360,,"Katlakalna iela",,56.93203,24.19866,https://saraksti.rigassatiksme.lv,,
0250,,"Lubānas iela",,56.93293,24.16700,https://saraksti.rigassatiksme.lv,,
1499,,"Lubānas iela",,56.93145,24.18291,https://saraksti.rigassatiksme.lv,,
0719,,"Lubānas iela",,56.93204,24.17378,https://saraksti.rigassatiksme.lv,,
7978,,"Pļavnieku kapi",,56.93494,24.22073,https://saraksti.rigassatiksme.lv,,
0288,,"Rembates iela",,56.93896,24.23030,https://saraksti.rigassatiksme.lv,,
0289,,"Rembates iela",,56.93923,24.23163,https://saraksti.rigassatiksme.lv,,
0046,,"Slāvu rotācijas aplis",,56.93110,24.18439,https://saraksti.rigassatiksme.lv,,
0358,,"Žīguru iela",,56.93696,24.22481,https://saraksti.rigassatiksme.lv,,
0366,,"Katoļu iela",,56.94058,24.13664,https://saraksti.rigassatiksme.lv,,
0276,,"Mazā Kalna iela",,56.94078,24.14817,https://saraksti.rigassatiksme.lv,,
0511,,"Viļānu iela",,56.94094,24.15344,https://saraksti.rigassatiksme.lv,,
0070,,"Celmu iela",,56.97479,24.23299,https://saraksti.rigassatiksme.lv,,
0071,,"Celmu iela",,56.97479,24.23256,https://saraksti.rigassatiksme.lv,,
0150,,"Hipokrāta iela",,56.97372,24.24088,https://saraksti.rigassatiksme.lv,,
0260,,"Malienas iela",,56.97385,24.24022,https://saraksti.rigassatiksme.lv,,
0343,,"Sociālās aprūpes centrs ""Mežciems""",,56.97504,24.22674,https://saraksti.rigassatiksme.lv,,
0341,,"Sociālās aprūpes centrs ""Mežciems""",,56.97505,24.22615,https://saraksti.rigassatiksme.lv,,
0430,,"Ūdeļu iela",,56.97561,24.25291,https://saraksti.rigassatiksme.lv,,
0427,,"Ūdeļu iela",,56.97577,24.25352,https://saraksti.rigassatiksme.lv,,
2115,,"""Dzintars""",,56.90600,24.11154,https://saraksti.rigassatiksme.lv,,
2113,,"Staburaga iela",,56.90750,24.10908,https://saraksti.rigassatiksme.lv,,
2116,,"Staburaga iela",,56.90806,24.10856,https://saraksti.rigassatiksme.lv,,
0264,,"Mangaļu prospekts",,57.07113,24.09526,https://saraksti.rigassatiksme.lv,,
0265,,"Mangaļu prospekts",,57.07088,24.09574,https://saraksti.rigassatiksme.lv,,
0182,,"Dzirnavu iela",,56.95056,24.12530,https://saraksti.rigassatiksme.lv,,
0114,,"Dzirnavu iela",,56.95071,24.12542,https://saraksti.rigassatiksme.lv,,
1028,,"Stacijas laukums",,56.94764,24.11885,https://saraksti.rigassatiksme.lv,,
5350,,"Saules aleja",,56.93023,24.07438,https://saraksti.rigassatiksme.lv,,
5351,,"Saules aleja",,56.92960,24.07491,https://saraksti.rigassatiksme.lv,,
1370,,"Tukuma iela",,56.93293,24.07164,https://saraksti.rigassatiksme.lv,,
1371,,"Tukuma iela",,56.93322,24.07136,https://saraksti.rigassatiksme.lv,,
1391,,"Bērnudārzs ""Lienīte""",,56.90016,24.04710,https://saraksti.rigassatiksme.lv,,
1393,,"Bērnudārzs ""Lienīte""",,56.89831,24.04633,https://saraksti.rigassatiksme.lv,,
1392,,"Mārupe",,56.89567,24.04605,https://saraksti.rigassatiksme.lv,,
0478,,"Aglonas iela",,56.91205,24.17730,https://saraksti.rigassatiksme.lv,,
0477,,"Aglonas iela",,56.91277,24.17724,https://saraksti.rigassatiksme.lv,,
0018,,"Apskates stacija",,56.88865,24.22999,https://saraksti.rigassatiksme.lv,,
0019,,"Apskates stacija",,56.88846,24.23107,https://saraksti.rigassatiksme.lv,,
0203,,"Dienvidu tilts",,56.92137,24.17137,https://saraksti.rigassatiksme.lv,,
0204,,"Dienvidu tilts",,56.92145,24.17049,https://saraksti.rigassatiksme.lv,,
0230,,"Eglaines iela/Dole",,56.90503,24.19140,https://saraksti.rigassatiksme.lv,,
0229,,"Eglaines iela/Dole",,56.90472,24.19117,https://saraksti.rigassatiksme.lv,,
0202,,"Ikšķiles iela",,56.90037,24.20276,https://saraksti.rigassatiksme.lv,,
0201,,"Ikšķiles iela",,56.89931,24.20456,https://saraksti.rigassatiksme.lv,,
0223,,"Krustpils iela",,56.89211,24.22177,https://saraksti.rigassatiksme.lv,,
0224,,"Krustpils iela",,56.89301,24.22023,https://saraksti.rigassatiksme.lv,,
0198,,"Ķengaraga iela",,56.91887,24.17329,https://saraksti.rigassatiksme.lv,,
0197,,"Ķengaraga iela",,56.91763,24.17343,https://saraksti.rigassatiksme.lv,,
0261,,"Malnavas iela",,56.90766,24.18506,https://saraksti.rigassatiksme.lv,,
0262,,"Malnavas iela",,56.90874,24.18352,https://saraksti.rigassatiksme.lv,,
0001,,"Maskavas iela 450",,56.88659,24.23493,https://saraksti.rigassatiksme.lv,,
0002,,"Maskavas iela 450",,56.88684,24.23493,https://saraksti.rigassatiksme.lv,,
0326,,"Pagrieziens uz Dārziņiem",,56.87081,24.27247,https://saraksti.rigassatiksme.lv,,
0325,,"Pagrieziens uz Dārziņiem",,56.87091,24.27284,https://saraksti.rigassatiksme.lv,,
0370,,"Prūšu iela",,56.91422,24.17554,https://saraksti.rigassatiksme.lv,,
0369,,"Prūšu iela",,56.91452,24.17597,https://saraksti.rigassatiksme.lv,,
0376,,"Rasas iela",,56.90180,24.19860,https://saraksti.rigassatiksme.lv,,
0377,,"Rasas iela",,56.90280,24.19686,https://saraksti.rigassatiksme.lv,,
0397,,"Rumbula",,56.88286,24.24487,https://saraksti.rigassatiksme.lv,,
0396,,"Rumbula",,56.88161,24.24677,https://saraksti.rigassatiksme.lv,,
0401,,"Rušonu iela",,56.91067,24.17951,https://saraksti.rigassatiksme.lv,,
0404,,"Rušonu iela",,56.90982,24.17997,https://saraksti.rigassatiksme.lv,,
0481,,"Tīrumi",,56.87517,24.26205,https://saraksti.rigassatiksme.lv,,
0480,,"Tīrumi",,56.87612,24.26033,https://saraksti.rigassatiksme.lv,,
0513,,"Višķu iela",,56.89627,24.21180,https://saraksti.rigassatiksme.lv,,
0515,,"Višķu iela",,56.89632,24.21241,https://saraksti.rigassatiksme.lv,,
5462,,"A.Čaka iela",,56.95568,24.13640,https://saraksti.rigassatiksme.lv,,
5466,,"Avotu iela",,56.95237,24.14323,https://saraksti.rigassatiksme.lv,,
5461,,"Krāsotāju iela",,56.95343,24.14121,https://saraksti.rigassatiksme.lv,,
5459,,"Matīsa iela",,56.94780,24.15331,https://saraksti.rigassatiksme.lv,,
5465,,"Matīsa iela",,56.95524,24.13709,https://saraksti.rigassatiksme.lv,,
5468,,"Pērnavas iela",,56.94789,24.15291,https://saraksti.rigassatiksme.lv,,
5460,,"Valmieras iela",,56.95056,24.14733,https://saraksti.rigassatiksme.lv,,
5467,,"Valmieras iela",,56.95006,24.14819,https://saraksti.rigassatiksme.lv,,
0730,,"Matrožu iela",,56.96335,24.07984,https://saraksti.rigassatiksme.lv,,
0525,,"Liepkalna iela",,56.97214,24.26302,https://saraksti.rigassatiksme.lv,,
0526,,"Liepkalna iela",,56.97238,24.26228,https://saraksti.rigassatiksme.lv,,
0138,,"Mazā Juglas iela",,56.97041,24.27056,https://saraksti.rigassatiksme.lv,,
1372,,"Kokles iela",,56.93362,24.07735,https://saraksti.rigassatiksme.lv,,
1373,,"Kokles iela",,56.93363,24.07756,https://saraksti.rigassatiksme.lv,,
5429,,"Jaunmārupes sākumskola",,56.88014,23.94590,https://saraksti.rigassatiksme.lv,,
4999,,"Mūzikas un mākslas skola",,56.88204,23.93479,https://saraksti.rigassatiksme.lv,,
5512,,"Pļavu iela",,56.88233,23.94193,https://saraksti.rigassatiksme.lv,,
5511,,"Pļavu iela",,56.88236,23.94158,https://saraksti.rigassatiksme.lv,,
5513,,"Siltumnīcu komplekss",,56.88074,23.93111,https://saraksti.rigassatiksme.lv,,
0093,,"Dārzeņu bāze",,56.93011,24.21178,https://saraksti.rigassatiksme.lv,,
0497,,"Rencēnu iela",,56.92275,24.21275,https://saraksti.rigassatiksme.lv,,
0496,,"Rencēnu iela",,56.92304,24.21290,https://saraksti.rigassatiksme.lv,,
1116,,"Āgenskalna iela",,56.94670,24.06238,https://saraksti.rigassatiksme.lv,,
1115,,"Ļermontova iela",,56.94052,24.07028,https://saraksti.rigassatiksme.lv,,
7974,,"Ļermontova iela",,56.94074,24.06982,https://saraksti.rigassatiksme.lv,,
1238,,"Melnsila iela",,56.94464,24.06539,https://saraksti.rigassatiksme.lv,,
1549,,"Babītes stacija",,56.95820,23.95348,https://saraksti.rigassatiksme.lv,,
0284,,"Mēness iela",,56.96864,24.13660,https://saraksti.rigassatiksme.lv,,
0059,,"Brīvības bulvāris",,56.95175,24.11617,https://saraksti.rigassatiksme.lv,,
0167,,"Inženieru iela",,56.95122,24.11682,https://saraksti.rigassatiksme.lv,,
1033b,,"Merķeļa iela",,56.94945,24.11884,https://saraksti.rigassatiksme.lv,,
1033a,,"Merķeļa iela",,56.94859,24.11984,https://saraksti.rigassatiksme.lv,,
2119,,"Merķeļa iela",,56.94908,24.11928,https://saraksti.rigassatiksme.lv,,
0048,,"Bergenas iela",,57.00226,24.15182,https://saraksti.rigassatiksme.lv,,
0049,,"Bergenas iela",,57.00243,24.15220,https://saraksti.rigassatiksme.lv,,
0132,,"Ezermalas iela",,57.00685,24.16420,https://saraksti.rigassatiksme.lv,,
0164,,"Inčukalna iela",,56.99706,24.14149,https://saraksti.rigassatiksme.lv,,
0292,,"Mežaparks / ZOO",,57.00437,24.15543,https://saraksti.rigassatiksme.lv,,
0291,,"Mežaparks / ZOO",,57.00487,24.15652,https://saraksti.rigassatiksme.lv,,
0417,,"Sarkandaugava",,56.99578,24.13189,https://saraksti.rigassatiksme.lv,,
0189,,"Sarkandaugavas kapi",,56.99691,24.13919,https://saraksti.rigassatiksme.lv,,
0448,,"Stendera iela",,56.99927,24.14646,https://saraksti.rigassatiksme.lv,,
0449,,"Stendera iela",,56.99881,24.14571,https://saraksti.rigassatiksme.lv,,
7983,,"Hipokrāta iela",,56.97302,24.24041,https://saraksti.rigassatiksme.lv,,
7982,,"Līduma iela",,56.97219,24.23434,https://saraksti.rigassatiksme.lv,,
1156,,"Līduma iela",,56.97205,24.23318,https://saraksti.rigassatiksme.lv,,
7999,,"Brasas stacija",,56.97582,24.14434,https://saraksti.rigassatiksme.lv,,
0127,,"Ēveles iela",,56.96873,24.13563,https://saraksti.rigassatiksme.lv,,
8000,,"Kazarmu iela",,56.97320,24.14186,https://saraksti.rigassatiksme.lv,,
0238,,"Lēdurgas iela",,57.01799,24.13049,https://saraksti.rigassatiksme.lv,,
0314,,"Ostas iela",,57.02182,24.13475,https://saraksti.rigassatiksme.lv,,
0313,,"Ostas iela",,57.02171,24.13412,https://saraksti.rigassatiksme.lv,,
1518,,"Ferrum Agro",,56.96953,24.37367,https://saraksti.rigassatiksme.lv,,
1519,,"Ferrum Agro",,56.96959,24.37377,https://saraksti.rigassatiksme.lv,,
1255,,"Bieķensalas iela",,56.92829,24.10720,https://saraksti.rigassatiksme.lv,,
9104,,"Bieķensalas iela",,56.92641,24.10656,https://saraksti.rigassatiksme.lv,,
1257,,"Kīleveina grāvis",,56.93796,24.10174,https://saraksti.rigassatiksme.lv,,
1260,,"Kīleveina grāvis",,56.93715,24.10228,https://saraksti.rigassatiksme.lv,,
1256,,"Laivu iela",,56.93132,24.10707,https://saraksti.rigassatiksme.lv,,
1261,,"Laivu iela",,56.93141,24.10684,https://saraksti.rigassatiksme.lv,,
2052,,"Mūkusala",,56.93470,24.10505,https://saraksti.rigassatiksme.lv,,
2053,,"Mūkusala",,56.93350,24.10558,https://saraksti.rigassatiksme.lv,,
1258,,"Nacionālā bibliotēka",,56.94119,24.09879,https://saraksti.rigassatiksme.lv,,
1259,,"Nacionālā bibliotēka",,56.94159,24.09810,https://saraksti.rigassatiksme.lv,,
0170,,"Jugla",,56.97801,24.25489,https://saraksti.rigassatiksme.lv,,
0179,,"Jugla",,56.97772,24.25484,https://saraksti.rigassatiksme.lv,,
0232,,"Kvēles iela",,56.98042,24.24459,https://saraksti.rigassatiksme.lv,,
0231,,"Kvēles iela",,56.98077,24.24378,https://saraksti.rigassatiksme.lv,,
0706,,"Mārkalnes iela",,56.98771,24.23040,https://saraksti.rigassatiksme.lv,,
0303,,"Murjāņu iela",,56.97882,24.25009,https://saraksti.rigassatiksme.lv,,
0302,,"Murjāņu iela",,56.97900,24.24919,https://saraksti.rigassatiksme.lv,,
2059,,"Dzelzavas iela",,56.95825,24.17694,https://saraksti.rigassatiksme.lv,,
2062,,"Dzelzavas iela",,56.95900,24.17742,https://saraksti.rigassatiksme.lv,,
0307,,"Nīcgales iela",,56.95016,24.17311,https://saraksti.rigassatiksme.lv,,
2060,,"Purvciems",,56.95477,24.17535,https://saraksti.rigassatiksme.lv,,
2061,,"Purvciems",,56.95558,24.17591,https://saraksti.rigassatiksme.lv,,
1497,,"Vietalvas iela",,56.94544,24.17202,https://saraksti.rigassatiksme.lv,,
1498,,"Vietalvas iela",,56.94501,24.17249,https://saraksti.rigassatiksme.lv,,
1114,,"Āgenskalna tirgus",,56.93585,24.07098,https://saraksti.rigassatiksme.lv,,
1240,,"Āgenskalna tirgus",,56.93584,24.07089,https://saraksti.rigassatiksme.lv,,
1239,,"Nometņu iela",,56.93810,24.07216,https://saraksti.rigassatiksme.lv,,
5021,,"Arkādijas parks",,56.93145,24.08212,https://saraksti.rigassatiksme.lv,,
5022,,"Arkādijas parks",,56.93155,24.08230,https://saraksti.rigassatiksme.lv,,
1364,,"Torņakalna iela",,56.92816,24.08062,https://saraksti.rigassatiksme.lv,,
1365,,"Torņakalna iela",,56.92849,24.08079,https://saraksti.rigassatiksme.lv,,
8041,,"Īslīces iela",,56.89837,24.08609,https://saraksti.rigassatiksme.lv,,
5333,,"Mežkalna iela",,56.89881,24.07946,https://saraksti.rigassatiksme.lv,,
1340,,"Ozolciema iela",,56.89951,24.09832,https://saraksti.rigassatiksme.lv,,
1342,,"Ozolciema iela",,56.89917,24.09666,https://saraksti.rigassatiksme.lv,,
1341,,"Ziepniekkalna D/P",,56.90238,24.10252,https://saraksti.rigassatiksme.lv,,
1341a,,"Ziepniekkalna D/P",,56.90190,24.10270,https://saraksti.rigassatiksme.lv,,
0009,,"Dārziņi",,56.89614,24.17333,https://saraksti.rigassatiksme.lv,,
5517,,"Alkšņu iela",,56.87550,23.94576,https://saraksti.rigassatiksme.lv,,
5516,,"Bērzu iela",,56.87574,23.93869,https://saraksti.rigassatiksme.lv,,
5518,,"Kalngales",,56.87555,23.95093,https://saraksti.rigassatiksme.lv,,
5514,,"Ziedkalnu iela",,56.87811,23.92513,https://saraksti.rigassatiksme.lv,,
5428,,"Jaunmārupes sākumskola",,56.87973,23.94608,https://saraksti.rigassatiksme.lv,,
5177,,"Ķienes",,56.87895,23.95803,https://saraksti.rigassatiksme.lv,,
5176,,"Ķienes",,56.87908,23.95906,https://saraksti.rigassatiksme.lv,,
5311,,"Puķulejas",,56.88636,23.98771,https://saraksti.rigassatiksme.lv,,
5310,,"Puķulejas",,56.88731,23.99217,https://saraksti.rigassatiksme.lv,,
5330,,"Riekstiņi",,56.88086,23.96469,https://saraksti.rigassatiksme.lv,,
5329,,"Riekstiņi",,56.88190,23.96945,https://saraksti.rigassatiksme.lv,,
4848,,"Vētras",,56.88328,23.97465,https://saraksti.rigassatiksme.lv,,
8083,,"Vētras",,56.88419,23.97921,https://saraksti.rigassatiksme.lv,,
5439,,"Vizmas",,56.88981,24.00222,https://saraksti.rigassatiksme.lv,,
1541,,"Lidosta Rīga",,56.92154,23.97973,https://saraksti.rigassatiksme.lv,,
1542,,"Lidosta Rīga",,56.92115,23.98114,https://saraksti.rigassatiksme.lv,,
1540,,"Priežkalni",,56.92306,23.99648,https://saraksti.rigassatiksme.lv,,
1543,,"Priežkalni",,56.92306,23.99722,https://saraksti.rigassatiksme.lv,,
1539,,"Rūdas",,56.92673,24.00215,https://saraksti.rigassatiksme.lv,,
1544,,"Rūdas",,56.92678,24.00283,https://saraksti.rigassatiksme.lv,,
1521,,"Amatnieki",,56.96981,24.33987,https://saraksti.rigassatiksme.lv,,
1522,,"Amatnieki",,56.96852,24.33862,https://saraksti.rigassatiksme.lv,,
1523,,"Upeskalni",,56.96526,24.33035,https://saraksti.rigassatiksme.lv,,
1524,,"Upeskalni",,56.96512,24.32961,https://saraksti.rigassatiksme.lv,,
5101a,,"Dreiliņu pasts",,56.94365,24.24481,https://saraksti.rigassatiksme.lv,,
9097,,"Dreiliņu pasts",,56.94337,24.24604,https://saraksti.rigassatiksme.lv,,
5102,,"Dreiliņu veikals",,56.94342,24.25082,https://saraksti.rigassatiksme.lv,,
5103,,"Dreiliņu veikals",,56.94351,24.25041,https://saraksti.rigassatiksme.lv,,
5199,,"Liepziedi",,56.94329,24.25756,https://saraksti.rigassatiksme.lv,,
5200,,"Liepziedi",,56.94338,24.25646,https://saraksti.rigassatiksme.lv,,
5320,,"Radiocentrs",,56.94288,24.27131,https://saraksti.rigassatiksme.lv,,
5321,,"Radiocentrs",,56.94309,24.26747,https://saraksti.rigassatiksme.lv,,
1161,,"Birutas Baumanes aleja",,57.03642,24.01976,https://saraksti.rigassatiksme.lv,,
1180,,"Birutas Baumanes aleja",,57.03688,24.02103,https://saraksti.rigassatiksme.lv,,
1162,,"Daugavgrīvas D/P",,57.03581,24.01737,https://saraksti.rigassatiksme.lv,,
1159,,"Plēksnes iela",,57.04066,24.02915,https://saraksti.rigassatiksme.lv,,
1182,,"Plēksnes iela",,57.04110,24.03036,https://saraksti.rigassatiksme.lv,,
1160,,"Zvīņu iela",,57.03849,24.02439,https://saraksti.rigassatiksme.lv,,
1181,,"Zvīņu iela",,57.03929,24.02642,https://saraksti.rigassatiksme.lv,,
5292,,"A.Čaka iela",,56.96317,24.15087,https://saraksti.rigassatiksme.lv,,
5293,,"A.Čaka iela",,56.96319,24.15107,https://saraksti.rigassatiksme.lv,,
0064,,"Brīvības iela",,56.96582,24.14866,https://saraksti.rigassatiksme.lv,,
5145,,"Grīziņkalns",,56.95594,24.15296,https://saraksti.rigassatiksme.lv,,
5144,,"Grīziņkalns",,56.95708,24.15287,https://saraksti.rigassatiksme.lv,,
0344,,"Pērnavas iela",,56.96601,24.14827,https://saraksti.rigassatiksme.lv,,
8025,,"Vārnu iela",,56.95926,24.15202,https://saraksti.rigassatiksme.lv,,
2079,,"Vārnu iela",,56.96027,24.15191,https://saraksti.rigassatiksme.lv,,
5454,,"Piedrujas iela",,56.93991,24.17406,https://saraksti.rigassatiksme.lv,,
0351,,"Pildas iela",,56.94189,24.18063,https://saraksti.rigassatiksme.lv,,
2036,,"Paula Stradiņa slimnīca",,56.93203,24.06957,https://saraksti.rigassatiksme.lv,,
2083,,"Bultu iela",,56.90999,24.19486,https://saraksti.rigassatiksme.lv,,
2089,,"Bultu iela",,56.90904,24.19607,https://saraksti.rigassatiksme.lv,,
2091,,"Ikšķiles iela",,56.90425,24.20854,https://saraksti.rigassatiksme.lv,,
2084,,"Malnavas iela",,56.91253,24.19111,https://saraksti.rigassatiksme.lv,,
2088,,"Malnavas iela",,56.91153,24.19252,https://saraksti.rigassatiksme.lv,,
2082,,"Plostu iela",,56.90675,24.20026,https://saraksti.rigassatiksme.lv,,
2090,,"Plostu iela",,56.90627,24.20143,https://saraksti.rigassatiksme.lv,,
2081,,"Prūšu iela",,56.90459,24.20812,https://saraksti.rigassatiksme.lv,,
2087,,"Rušonu iela",,56.91439,24.18579,https://saraksti.rigassatiksme.lv,,
0115,,"Dzirnavu iela",,56.96245,24.10607,https://saraksti.rigassatiksme.lv,,
0116,,"Hanzas iela",,56.96180,24.10579,https://saraksti.rigassatiksme.lv,,
5472,,"Pētersalas iela",,56.96764,24.10632,https://saraksti.rigassatiksme.lv,,
2013,,"Pētersalas iela",,56.96764,24.10648,https://saraksti.rigassatiksme.lv,,
0060,,"Brīvības bulvāris",,56.95215,24.11314,https://saraksti.rigassatiksme.lv,,
0075,,"Centrālā stacija",,56.94847,24.11772,https://saraksti.rigassatiksme.lv,,
7980,,"Centrālā stacija",,56.94758,24.11834,https://saraksti.rigassatiksme.lv,,
2017,,"Centrālā stacija",,56.94755,24.11816,https://saraksti.rigassatiksme.lv,,
0168,,"Inženieru iela",,56.95090,24.11490,https://saraksti.rigassatiksme.lv,,
0373,,"Raiņa bulvāris",,56.95393,24.10927,https://saraksti.rigassatiksme.lv,,
1244,,"Kalnciema iela",,56.94567,24.08363,https://saraksti.rigassatiksme.lv,,
1104,,"Uzvaras bulvāris",,56.94031,24.09141,https://saraksti.rigassatiksme.lv,,
0626,,"Kleisti",,56.98686,24.01407,https://saraksti.rigassatiksme.lv,,
0626a,,"Kleisti",,56.98702,24.01420,https://saraksti.rigassatiksme.lv,,
0625,,"Mikrobioloģijas institūts",,56.98505,24.02564,https://saraksti.rigassatiksme.lv,,
0627,,"Mikrobioloģijas institūts",,56.98496,24.02532,https://saraksti.rigassatiksme.lv,,
0624,,"Pagrieziens uz Kleistiem",,56.98376,24.03169,https://saraksti.rigassatiksme.lv,,
0368,,"Preču - 2",,56.92254,24.21701,https://saraksti.rigassatiksme.lv,,
1310,,"Baloži",,56.87617,24.12217,https://saraksti.rigassatiksme.lv,,
1314,,"Baloži",,56.87645,24.12302,https://saraksti.rigassatiksme.lv,,
1312,,"Kantoris",,56.87066,24.11062,https://saraksti.rigassatiksme.lv,,
5273,,"Pagrieziens uz Piņķiem",,56.94580,23.91993,https://saraksti.rigassatiksme.lv,,
4977,,"Piņķi",,56.94428,23.91045,https://saraksti.rigassatiksme.lv,,
8073,,"Piņķi",,56.94433,23.91042,https://saraksti.rigassatiksme.lv,,
1311,,"Skola",,56.87486,24.11855,https://saraksti.rigassatiksme.lv,,
1313,,"Skola",,56.87480,24.11870,https://saraksti.rigassatiksme.lv,,
1404,,"Robežu iela",,56.92287,24.07576,https://saraksti.rigassatiksme.lv,,
1434,,"Anniņmuižas iela",,56.94926,24.01440,https://saraksti.rigassatiksme.lv,,
1436,,"Anniņmuižas iela",,56.94938,24.01264,https://saraksti.rigassatiksme.lv,,
1439,,"Imantas stacija",,56.94956,24.00122,https://saraksti.rigassatiksme.lv,,
1440,,"Imantas stacija",,56.94966,23.99980,https://saraksti.rigassatiksme.lv,,
1437,,"Rostokas iela 16",,56.94952,24.00598,https://saraksti.rigassatiksme.lv,,
1438,,"Rostokas iela 16",,56.94945,24.00653,https://saraksti.rigassatiksme.lv,,
1435,,"Zolitūdes D/P",,56.94830,24.02382,https://saraksti.rigassatiksme.lv,,
1426,,"Rucavas iela",,56.93912,24.03131,https://saraksti.rigassatiksme.lv,,
9106,,"Rusova iela/Valsts ieņēmumu dienests",,56.98903,24.16680,https://saraksti.rigassatiksme.lv,,
2085,,"Rušonu iela",,56.91527,24.18553,https://saraksti.rigassatiksme.lv,,
0298,,"Motormuzejs",,56.97034,24.23003,https://saraksti.rigassatiksme.lv,,
0297,,"Motormuzejs",,56.97025,24.22997,https://saraksti.rigassatiksme.lv,,
0408,,"S.Eizenšteina iela",,56.96146,24.23215,https://saraksti.rigassatiksme.lv,,
0439,,"Sporta bāze ""Biķernieki""",,56.96611,24.23348,https://saraksti.rigassatiksme.lv,,
0199,,"""Kuzņecovs""",,56.92423,24.17851,https://saraksti.rigassatiksme.lv,,
0200,,"""Kuzņecovs""",,56.92474,24.17812,https://saraksti.rigassatiksme.lv,,
0171,,"Jāņavārti",,56.91994,24.18381,https://saraksti.rigassatiksme.lv,,
0172,,"Jāņavārti",,56.91945,24.18469,https://saraksti.rigassatiksme.lv,,
0403,,"Rušonu iela",,56.91769,24.18695,https://saraksti.rigassatiksme.lv,,
0412,,"Salaspils iela",,56.93227,24.16893,https://saraksti.rigassatiksme.lv,,
0432,,"Slāvu iela",,56.92866,24.17284,https://saraksti.rigassatiksme.lv,,
0431,,"Slāvu iela",,56.92962,24.17206,https://saraksti.rigassatiksme.lv,,
1254,,"Lucavsala",,56.92935,24.11422,https://saraksti.rigassatiksme.lv,,
1333,,"Lucavsala",,56.92919,24.11457,https://saraksti.rigassatiksme.lv,,
1253,,"Zaķusala",,56.93257,24.11941,https://saraksti.rigassatiksme.lv,,
1334,,"Zaķusala",,56.93258,24.12003,https://saraksti.rigassatiksme.lv,,
0077,,"Centrālā stacija",,56.94811,24.12107,https://saraksti.rigassatiksme.lv,,
0074,,"Elizabetes iela",,56.94812,24.12347,https://saraksti.rigassatiksme.lv,,
0146,,"Ģertrūdes iela",,56.94703,24.13994,https://saraksti.rigassatiksme.lv,,
0076,,"Stacijas laukums",,56.94779,24.12012,https://saraksti.rigassatiksme.lv,,
2105,,"Mālu iela",,56.91123,24.10405,https://saraksti.rigassatiksme.lv,,
2102,,"Saulkalnes iela",,56.91491,24.09780,https://saraksti.rigassatiksme.lv,,
2110,,"Saulkalnes iela",,56.91207,24.10290,https://saraksti.rigassatiksme.lv,,
1383,,"Brūkleņu iela",,56.91347,24.05057,https://saraksti.rigassatiksme.lv,,
1384,,"Kurmenes iela",,56.91315,24.05482,https://saraksti.rigassatiksme.lv,,
1386,,"Kursīšu iela",,56.91266,24.05894,https://saraksti.rigassatiksme.lv,,
9102,,"Miera iela",,56.97037,24.13917,https://saraksti.rigassatiksme.lv,,
9103,,"Miera iela",,56.97024,24.13915,https://saraksti.rigassatiksme.lv,,
5457,,"93.vidusskola",,56.94589,24.19071,https://saraksti.rigassatiksme.lv,,
1502,,"Gaismas iela",,56.94553,24.18196,https://saraksti.rigassatiksme.lv,,
1500,,"Skaņu iela",,56.94486,24.17612,https://saraksti.rigassatiksme.lv,,
1501,,"Skaņu iela",,56.94496,24.17634,https://saraksti.rigassatiksme.lv,,
1601,,"Malēju iela",,56.90736,24.22091,https://saraksti.rigassatiksme.lv,,
1706,,"Sila iela",,56.90659,24.21545,https://saraksti.rigassatiksme.lv,,
0061,,"Brīvības gatve",,56.98856,24.23747,https://saraksti.rigassatiksme.lv,,
0424,,"Silciema iela",,56.98832,24.23743,https://saraksti.rigassatiksme.lv,,
0505,,"Slēpotāju iela",,56.98553,24.23903,https://saraksti.rigassatiksme.lv,,
0506,,"Slēpotāju iela",,56.98469,24.23924,https://saraksti.rigassatiksme.lv,,
1184,,"Platā iela",,57.02853,24.04446,https://saraksti.rigassatiksme.lv,,
1185,,"Platā iela",,57.02848,24.04471,https://saraksti.rigassatiksme.lv,,
1187,,"Silikātu iela",,57.02790,24.03422,https://saraksti.rigassatiksme.lv,,
1186,,"Silikātu iela",,57.02809,24.03392,https://saraksti.rigassatiksme.lv,,
1037,,"Arēna Rīga",,56.96948,24.11946,https://saraksti.rigassatiksme.lv,,
1038,,"Arēna Rīga",,56.96947,24.11887,https://saraksti.rigassatiksme.lv,,
0438,,"Šoseja",,56.98595,24.32154,https://saraksti.rigassatiksme.lv,,
0437,,"Šoseja",,56.98583,24.32231,https://saraksti.rigassatiksme.lv,,
5368,,"Silkalēji",,56.92017,23.94418,https://saraksti.rigassatiksme.lv,,
5369,,"Silkalēji",,56.92031,23.94257,https://saraksti.rigassatiksme.lv,,
5000,,"Skulte",,56.91937,23.95258,https://saraksti.rigassatiksme.lv,,
8078,,"Skulte",,56.91932,23.95358,https://saraksti.rigassatiksme.lv,,
1703,,"Skultes stadions",,56.91965,23.94951,https://saraksti.rigassatiksme.lv,,
1704,,"Skultes stadions",,56.91993,23.94754,https://saraksti.rigassatiksme.lv,,
1105,,"A.Grīna bulvāris",,56.94209,24.08187,https://saraksti.rigassatiksme.lv,,
1109,,"A.Grīna bulvāris",,56.94199,24.08190,https://saraksti.rigassatiksme.lv,,
1041,,"Baldones iela",,56.95076,24.06607,https://saraksti.rigassatiksme.lv,,
1091,,"Baldones iela",,56.95066,24.06581,https://saraksti.rigassatiksme.lv,,
1107,,"Kalnciema iela",,56.94525,24.07477,https://saraksti.rigassatiksme.lv,,
1040,,"Mārtiņa iela",,56.94816,24.07258,https://saraksti.rigassatiksme.lv,,
1092,,"Mārtiņa iela",,56.94848,24.07212,https://saraksti.rigassatiksme.lv,,
1106,,"Nometņu iela",,56.94301,24.07816,https://saraksti.rigassatiksme.lv,,
1108,,"Nometņu iela",,56.94353,24.07679,https://saraksti.rigassatiksme.lv,,
0618,,"Observatorijas iela",,56.96187,24.03932,https://saraksti.rigassatiksme.lv,,
0634,,"Observatorijas iela",,56.96177,24.03934,https://saraksti.rigassatiksme.lv,,
0617,,"Saulgožu iela",,56.96132,24.04769,https://saraksti.rigassatiksme.lv,,
0635,,"Saulgožu iela",,56.96121,24.04849,https://saraksti.rigassatiksme.lv,,
1110,,"Uzvaras bulvāris",,56.93987,24.09070,https://saraksti.rigassatiksme.lv,,
1219,,"Skodas iela",,56.97104,24.04999,https://saraksti.rigassatiksme.lv,,
1210,,"Skodas iela",,56.97117,24.05056,https://saraksti.rigassatiksme.lv,,
1218,,"Spilves iela 16",,56.97192,24.05216,https://saraksti.rigassatiksme.lv,,
1211,,"Spilves iela 16",,56.97202,24.05267,https://saraksti.rigassatiksme.lv,,
1492,,"A.Čaka iela",,56.95458,24.13199,https://saraksti.rigassatiksme.lv,,
0037,,"Avotu iela",,56.95193,24.13739,https://saraksti.rigassatiksme.lv,,
0440,,"Stabu iela",,56.95213,24.13720,https://saraksti.rigassatiksme.lv,,
1491,,"Stabu iela",,56.95774,24.12539,https://saraksti.rigassatiksme.lv,,
0324,,"Paegles",,57.06144,24.08000,https://saraksti.rigassatiksme.lv,,
0323,,"Paegles",,57.06159,24.07997,https://saraksti.rigassatiksme.lv,,
7993,,"Stāvvadu iela",,57.07016,24.08866,https://saraksti.rigassatiksme.lv,,
7994,,"Stāvvadu iela",,57.07026,24.08886,https://saraksti.rigassatiksme.lv,,
7997,,"Stigu iela",,56.95373,24.21686,https://saraksti.rigassatiksme.lv,,
7998,,"Stigu iela",,56.95378,24.21674,https://saraksti.rigassatiksme.lv,,
5076,,"Čiekuri",,56.89197,23.98662,https://saraksti.rigassatiksme.lv,,
5075,,"Čiekuri",,56.89226,23.98646,https://saraksti.rigassatiksme.lv,,
4996,,"Milži",,56.90446,23.99476,https://saraksti.rigassatiksme.lv,,
8064,,"Milži",,56.90470,23.99530,https://saraksti.rigassatiksme.lv,,
5236,,"Noras",,56.91015,24.00243,https://saraksti.rigassatiksme.lv,,
5235,,"Noras",,56.91101,24.00376,https://saraksti.rigassatiksme.lv,,
5389,,"Stīpnieki",,56.91495,24.00910,https://saraksti.rigassatiksme.lv,,
5390,,"Stīpnieki",,56.91641,24.01158,https://saraksti.rigassatiksme.lv,,
5447,,"Zirnīši",,56.89792,23.98565,https://saraksti.rigassatiksme.lv,,
5448,,"Zirnīši",,56.89818,23.98631,https://saraksti.rigassatiksme.lv,,
2058,,"64.vidusskola",,56.95901,24.18499,https://saraksti.rigassatiksme.lv,,
2065,,"64.vidusskola",,56.96023,24.18720,https://saraksti.rigassatiksme.lv,,
2057,,"Ainavas iela",,56.96184,24.19071,https://saraksti.rigassatiksme.lv,,
2066,,"Ainavas iela",,56.96240,24.19213,https://saraksti.rigassatiksme.lv,,
2080,,"Ieriķu iela",,56.96507,24.19535,https://saraksti.rigassatiksme.lv,,
2125,,"Ieriķu iela",,56.96463,24.19485,https://saraksti.rigassatiksme.lv,,
1152,,"Bolderājas tirgus",,57.03285,24.04821,https://saraksti.rigassatiksme.lv,,
1425,,"Rucavas iela",,56.93929,24.03054,https://saraksti.rigassatiksme.lv,,
0062,,"Brīvības gatve",,56.98450,24.20930,https://saraksti.rigassatiksme.lv,,
0434,,"Slimnīca ""Šmerlis""",,56.98044,24.21246,https://saraksti.rigassatiksme.lv,,
0433,,"Slimnīca ""Šmerlis""",,56.98094,24.21201,https://saraksti.rigassatiksme.lv,,
1336,,"Bērzupes iela",,56.91611,24.09186,https://saraksti.rigassatiksme.lv,,
1337,,"Bērzupes iela",,56.91594,24.09293,https://saraksti.rigassatiksme.lv,,
0503,,"Ābeļu iela",,56.86769,24.27077,https://saraksti.rigassatiksme.lv,,
0507,,"Ābeļu iela",,56.86769,24.27092,https://saraksti.rigassatiksme.lv,,
0095,,"Jāņogu iela",,56.86281,24.26882,https://saraksti.rigassatiksme.lv,,
0530,,"Sakņu iela",,56.86496,24.26972,https://saraksti.rigassatiksme.lv,,
0531,,"Sakņu iela",,56.86480,24.26949,https://saraksti.rigassatiksme.lv,,
2096,,"Bajāru iela",,56.97276,24.17987,https://saraksti.rigassatiksme.lv,,
2097,,"Biķernieku iela",,56.97102,24.17901,https://saraksti.rigassatiksme.lv,,
2095,,"Tālivalža iela",,56.97514,24.18247,https://saraksti.rigassatiksme.lv,,
2098,,"Zalkšu iela",,56.97324,24.18052,https://saraksti.rigassatiksme.lv,,
2028,,"A.Čaka iela",,56.95928,24.14342,https://saraksti.rigassatiksme.lv,,
2041,,"A.Čaka iela",,56.95885,24.14399,https://saraksti.rigassatiksme.lv,,
0065,,"Brīvības iela",,56.96360,24.13618,https://saraksti.rigassatiksme.lv,,
2030,,"Brīvības iela",,56.96260,24.13789,https://saraksti.rigassatiksme.lv,,
2026,,"J.Asara iela",,56.95445,24.15138,https://saraksti.rigassatiksme.lv,,
2043,,"J.Asara iela",,56.95562,24.15011,https://saraksti.rigassatiksme.lv,,
2029,,"K.Barona iela",,56.96060,24.14112,https://saraksti.rigassatiksme.lv,,
2040,,"K.Barona iela",,56.96118,24.14002,https://saraksti.rigassatiksme.lv,,
2042,,"Krāsotāju iela",,56.95713,24.14728,https://saraksti.rigassatiksme.lv,,
2031,,"Miera iela",,56.96523,24.13381,https://saraksti.rigassatiksme.lv,,
2027,,"Vārnu iela",,56.95787,24.14608,https://saraksti.rigassatiksme.lv,,
5023,,"Ārlavas iela",,56.92304,24.07912,https://saraksti.rigassatiksme.lv,,
5024,,"Ārlavas iela",,56.92335,24.07935,https://saraksti.rigassatiksme.lv,,
5060,,"Bramberģes iela",,56.91489,24.06995,https://saraksti.rigassatiksme.lv,,
5061,,"Bramberģes iela",,56.91409,24.06847,https://saraksti.rigassatiksme.lv,,
5134,,"Ģimnastikas iela",,56.91939,24.07553,https://saraksti.rigassatiksme.lv,,
1401,,"Ģimnastikas iela",,56.91873,24.07475,https://saraksti.rigassatiksme.lv,,
5359,,"Sējas iela",,56.91238,24.06609,https://saraksti.rigassatiksme.lv,,
5360,,"Sējas iela",,56.91205,24.06540,https://saraksti.rigassatiksme.lv,,
1399,,"Vecmoku iela",,56.91706,24.07314,https://saraksti.rigassatiksme.lv,,
1400,,"Vecmoku iela",,56.91709,24.07340,https://saraksti.rigassatiksme.lv,,
0415,,"Sarkandaugava",,56.99419,24.12494,https://saraksti.rigassatiksme.lv,,
0416,,"Sarkandaugava",,56.99487,24.12679,https://saraksti.rigassatiksme.lv,,
7975,,"Sarkandaugava",,56.99569,24.12903,https://saraksti.rigassatiksme.lv,,
0016,,"Aizvēja",,57.05356,24.06251,https://saraksti.rigassatiksme.lv,,
0017,,"Aizvēja",,57.05276,24.06310,https://saraksti.rigassatiksme.lv,,
0263,,"Mangaļsala",,57.06101,24.05520,https://saraksti.rigassatiksme.lv,,
0311,,"Osta",,57.05577,24.06070,https://saraksti.rigassatiksme.lv,,
0312,,"Osta",,57.05548,24.06069,https://saraksti.rigassatiksme.lv,,
0266,,"Aldaris",,57.00568,24.11999,https://saraksti.rigassatiksme.lv,,
0024,,"Aptiekas iela",,56.99841,24.11713,https://saraksti.rigassatiksme.lv,,
0023,,"Aptiekas iela",,56.99943,24.11796,https://saraksti.rigassatiksme.lv,,
0384,,"Psihiatrijas un narkoloģijas centrs",,56.99401,24.12076,https://saraksti.rigassatiksme.lv,,
0383,,"Psihiatrijas un narkoloģijas centrs",,56.99378,24.12071,https://saraksti.rigassatiksme.lv,,
0278,,"Tvaika iela 4",,56.99613,24.11825,https://saraksti.rigassatiksme.lv,,
0277,,"Tvaika iela 4",,56.99640,24.11780,https://saraksti.rigassatiksme.lv,,
9092,,"Latvenergo",,56.95318,24.22166,https://saraksti.rigassatiksme.lv,,
9093,,"Latvenergo",,56.95313,24.22138,https://saraksti.rigassatiksme.lv,,
0413,,"Salnas iela",,56.94431,24.21736,https://saraksti.rigassatiksme.lv,,
0414,,"Salnas iela",,56.94324,24.21675,https://saraksti.rigassatiksme.lv,,
0488,,"Ulbrokas iela",,56.93893,24.21521,https://saraksti.rigassatiksme.lv,,
0487,,"Ulbrokas iela",,56.93867,24.21490,https://saraksti.rigassatiksme.lv,,
0353,,"Madaru iela",,56.98750,24.30409,https://saraksti.rigassatiksme.lv,,
0354,,"Madaru iela",,56.98735,24.30429,https://saraksti.rigassatiksme.lv,,
0462,,"Tadenavas iela",,56.98863,24.29896,https://saraksti.rigassatiksme.lv,,
0461,,"Tadenavas iela",,56.98862,24.29844,https://saraksti.rigassatiksme.lv,,
0334,,"Upesciema iela",,56.99053,24.29151,https://saraksti.rigassatiksme.lv,,
0335,,"Upesciema iela",,56.99057,24.29169,https://saraksti.rigassatiksme.lv,,
1382,,"Upesgrīvas iela",,56.91975,24.04148,https://saraksti.rigassatiksme.lv,,
8082,,"Upesgrīvas iela",,56.91948,24.04120,https://saraksti.rigassatiksme.lv,,
5185,,"Nacionālā bibliotēka",,56.94244,24.09702,https://saraksti.rigassatiksme.lv,,
5186,,"Nacionālā bibliotēka",,56.94183,24.09516,https://saraksti.rigassatiksme.lv,,
1111,,"Slokas iela",,56.93877,24.08958,https://saraksti.rigassatiksme.lv,,
1243,,"Slokas iela",,56.93959,24.09120,https://saraksti.rigassatiksme.lv,,
8067,,"Mucenieki",,56.95887,24.37973,https://saraksti.rigassatiksme.lv,,
0491,,"Ūnijas iela",,56.96430,24.17686,https://saraksti.rigassatiksme.lv,,
2126,,"Vaidavas iela",,56.96165,24.17604,https://saraksti.rigassatiksme.lv,,
1335,,"K.Ulmaņa gatve",,56.91884,24.09253,https://saraksti.rigassatiksme.lv,,
1360,,"Vaiņodes iela",,56.91827,24.09213,https://saraksti.rigassatiksme.lv,,
2107,,"Ēbelmuižas iela",,56.90439,24.09380,https://saraksti.rigassatiksme.lv,,
1345,,"Graudu iela",,56.90981,24.09553,https://saraksti.rigassatiksme.lv,,
1346,,"Graudu iela",,56.90828,24.09508,https://saraksti.rigassatiksme.lv,,
1338,,"Spulgas iela",,56.90201,24.09324,https://saraksti.rigassatiksme.lv,,
1344,,"Spulgas iela",,56.90346,24.09375,https://saraksti.rigassatiksme.lv,,
1271,,"Tadaiķu iela",,56.91570,24.09710,https://saraksti.rigassatiksme.lv,,
1270,,"Valdeķu iela",,56.91453,24.09657,https://saraksti.rigassatiksme.lv,,
1339,,"Ziepniekkalna vidusskola",,56.89907,24.09220,https://saraksti.rigassatiksme.lv,,
1343,,"Ziepniekkalna vidusskola",,56.90021,24.09268,https://saraksti.rigassatiksme.lv,,
1338a,,"Ziepniekkalns",,56.90231,24.09350,https://saraksti.rigassatiksme.lv,,
2117,,"Valguma iela",,56.94057,24.09621,https://saraksti.rigassatiksme.lv,,
0274,,"Matīsa iela",,56.95107,24.14932,https://saraksti.rigassatiksme.lv,,
0271,,"Matīsa iela",,56.95067,24.14837,https://saraksti.rigassatiksme.lv,,
0330,,"Pagrieziens uz Mangaļsalu",,57.07066,24.10501,https://saraksti.rigassatiksme.lv,,
0304,,"Skanstnieki",,57.05536,24.10439,https://saraksti.rigassatiksme.lv,,
0305,,"Skanstnieki",,57.05585,24.10439,https://saraksti.rigassatiksme.lv,,
0444,,"Stacija ""Vecdaugava""",,57.05941,24.10600,https://saraksti.rigassatiksme.lv,,
0442,,"Stacija ""Vecdaugava""",,57.05902,24.10564,https://saraksti.rigassatiksme.lv,,
0331,,"Vecāķu prospekts",,57.07029,24.10484,https://saraksti.rigassatiksme.lv,,
0523,,"Zvejas iela",,57.06368,24.10613,https://saraksti.rigassatiksme.lv,,
0524,,"Zvejas iela",,57.06418,24.10585,https://saraksti.rigassatiksme.lv,,
1606,,"Veiksmes iela",,57.05612,24.07261,https://saraksti.rigassatiksme.lv,,
1607,,"Veiksmes iela",,57.05640,24.07280,https://saraksti.rigassatiksme.lv,,
1409,,"Astras iela",,56.93162,24.05150,https://saraksti.rigassatiksme.lv,,
1410,,"Astras iela",,56.93162,24.05095,https://saraksti.rigassatiksme.lv,,
1411,,"Jaunmoku iela",,56.93415,24.04481,https://saraksti.rigassatiksme.lv,,
1412,,"Jaunmoku iela",,56.93364,24.04570,https://saraksti.rigassatiksme.lv,,
7981,,"7.autobusu parks",,56.94023,24.16586,https://saraksti.rigassatiksme.lv,,
0392,,"RP SIA ""Rīgas satiksme""",,56.94365,24.16486,https://saraksti.rigassatiksme.lv,,
1351,,"Ābolu iela",,56.90626,24.08330,https://saraksti.rigassatiksme.lv,,
1352,,"Ābolu iela",,56.90449,24.08187,https://saraksti.rigassatiksme.lv,,
1354,,"Graudu iela",,56.90951,24.08536,https://saraksti.rigassatiksme.lv,,
1353,,"Graudu iela",,56.91048,24.08617,https://saraksti.rigassatiksme.lv,,
1355,,"Ģimnastikas iela",,56.91706,24.08799,https://saraksti.rigassatiksme.lv,,
1356,,"Ģimnastikas iela",,56.91580,24.08748,https://saraksti.rigassatiksme.lv,,
2048,,"Irbenes iela",,56.91395,24.08724,https://saraksti.rigassatiksme.lv,,
2049,,"Irbenes iela",,56.91347,24.08685,https://saraksti.rigassatiksme.lv,,
5331,,"Robežu iela/Bērnu slimnīca",,56.91925,24.08836,https://saraksti.rigassatiksme.lv,,
1357,,"Robežu iela/Bērnu slimnīca",,56.92055,24.08885,https://saraksti.rigassatiksme.lv,,
1362,,"Satiksmes iela",,56.92713,24.09038,https://saraksti.rigassatiksme.lv,,
1363,,"Satiksmes iela",,56.92709,24.09051,https://saraksti.rigassatiksme.lv,,
5334,,"Vienības gatve",,56.89966,24.07872,https://saraksti.rigassatiksme.lv,,
0239,,"Lēdurgas iela",,57.01913,24.13209,https://saraksti.rigassatiksme.lv,,
7996,,"Muzejs ""Dauderi""",,57.00337,24.12984,https://saraksti.rigassatiksme.lv,,
0365,,"Muzejs ""Dauderi""",,57.00519,24.12891,https://saraksti.rigassatiksme.lv,,
0051,,"Viestura prospekts",,57.00004,24.13192,https://saraksti.rigassatiksme.lv,,
0050,,"Viestura prospekts",,56.99909,24.13215,https://saraksti.rigassatiksme.lv,,
0217,,"Viestura prospekts 97",,57.01052,24.12890,https://saraksti.rigassatiksme.lv,,
0216,,"Viestura prospekts 97",,57.00957,24.12932,https://saraksti.rigassatiksme.lv,,
5452,,"Matīsa kapi",,56.94707,24.15960,https://saraksti.rigassatiksme.lv,,
1117,,"Kuldīgas iela",,56.94834,24.05796,https://saraksti.rigassatiksme.lv,,
1237,,"Kuldīgas iela",,56.94762,24.05979,https://saraksti.rigassatiksme.lv,,
0055,,"Biķernieku iela",,56.97262,24.16851,https://saraksti.rigassatiksme.lv,,
0471,,"TEC-1",,56.98970,24.18669,https://saraksti.rigassatiksme.lv,,
0472,,"TEC-1",,56.98959,24.18679,https://saraksti.rigassatiksme.lv,,
0512,,"Viskaļu iela",,56.98587,24.18474,https://saraksti.rigassatiksme.lv,,
0723,,"Višķu iela",,56.89919,24.21493,https://saraksti.rigassatiksme.lv,,
0299,,"Višķu iela 3",,56.89776,24.21248,https://saraksti.rigassatiksme.lv,,
0300,,"Višķu iela/trol. galapunkts",,56.90014,24.21653,https://saraksti.rigassatiksme.lv,,
8072,,"Daugavgrīvas šoseja",,56.98925,24.08288,https://saraksti.rigassatiksme.lv,,
1136,,"Voleri",,57.00378,24.08711,https://saraksti.rigassatiksme.lv,,
1137,,"Voleru iela 35",,56.99806,24.08685,https://saraksti.rigassatiksme.lv,,
1138,,"Voleru iela 35",,56.99760,24.08668,https://saraksti.rigassatiksme.lv,,
1139,,"Voleru iela 5",,56.99354,24.08605,https://saraksti.rigassatiksme.lv,,
1418,,"Apuzes iela",,56.93388,24.02851,https://saraksti.rigassatiksme.lv,,
1415,,"Candera iela",,56.93937,24.04523,https://saraksti.rigassatiksme.lv,,
1416,,"Irlavas iela",,56.93777,24.04016,https://saraksti.rigassatiksme.lv,,
1419,,"Pleskodāles iela",,56.93189,24.02486,https://saraksti.rigassatiksme.lv,,
1417,,"Rucavas iela",,56.93628,24.03545,https://saraksti.rigassatiksme.lv,,
1420,,"Zolitūdes iela",,56.92961,24.02001,https://saraksti.rigassatiksme.lv,,
2124,,"Televīzijas centrs",,56.93483,24.11766,https://saraksti.rigassatiksme.lv,,
0647,,"Zasulauka iela",,56.94249,24.04093,https://saraksti.rigassatiksme.lv,,
0648,,"Zasulauka iela",,56.94267,24.04060,https://saraksti.rigassatiksme.lv,,
1073,,"96.vidusskola",,56.95948,24.00500,https://saraksti.rigassatiksme.lv,,
1076,,"96.vidusskola",,56.95896,24.00681,https://saraksti.rigassatiksme.lv,,
1074,,"Vīksnes iela",,56.96055,24.00051,https://saraksti.rigassatiksme.lv,,
1075,,"Vīksnes iela",,56.96014,24.00183,https://saraksti.rigassatiksme.lv,,
5279,,"Priežciems",,56.95071,23.93612,https://saraksti.rigassatiksme.lv,,
1554,,"Latvijas Pasts",,56.92767,23.98697,https://saraksti.rigassatiksme.lv,,
1326,,"Kalētu iela",,56.90734,24.12826,https://saraksti.rigassatiksme.lv,,
1329,,"Kalētu iela",,56.90661,24.12836,https://saraksti.rigassatiksme.lv,,
1323,,"Krustkalni",,56.89693,24.13927,https://saraksti.rigassatiksme.lv,,
1324,,"Neilandi",,56.89803,24.13773,https://saraksti.rigassatiksme.lv,,
1331,,"Neilandi",,56.89730,24.13829,https://saraksti.rigassatiksme.lv,,
1330,,"Priekules iela",,56.90427,24.13025,https://saraksti.rigassatiksme.lv,,
1327,,"Šautuves iela",,56.91196,24.12458,https://saraksti.rigassatiksme.lv,,
1328,,"Šautuves iela",,56.91223,24.12403,https://saraksti.rigassatiksme.lv,,
1443,,"Gramzdas iela",,56.94344,24.00347,https://saraksti.rigassatiksme.lv,,
1446,,"Gramzdas iela",,56.94414,24.00309,https://saraksti.rigassatiksme.lv,,
1441,,"Imantas stacija",,56.94889,23.99929,https://saraksti.rigassatiksme.lv,,
1448,,"Imantas stacija",,56.94915,23.99924,https://saraksti.rigassatiksme.lv,,
1442,,"Mežmalas iela",,56.94607,24.00143,https://saraksti.rigassatiksme.lv,,
1447,,"Mežmalas iela",,56.94751,24.00049,https://saraksti.rigassatiksme.lv,,
9122,,"Aizsaules iela/Brāļu kapi",,56.98150,24.14922,https://saraksti.rigassatiksme.lv,,
2141,,"Brīvības gatve",,56.97477,24.16533,https://saraksti.rigassatiksme.lv,,
0026,,"Daudersala",,57.00945,24.12489,https://saraksti.rigassatiksme.lv,,
3211a,,"Ezermalas iela",,57.00692,24.16344,https://saraksti.rigassatiksme.lv,,
3235a,,"Gaujas iela",,56.98524,24.15915,https://saraksti.rigassatiksme.lv,,
3217a,,"Gaujas iela",,56.98666,24.16122,https://saraksti.rigassatiksme.lv,,
9121,,"Kazarmu iela",,56.97298,24.14280,https://saraksti.rigassatiksme.lv,,
1493,,"Tērbatas iela - pagaidu",,56.95653,24.12790,https://saraksti.rigassatiksme.lv,,
3239b,,"Visbijas prospekts",,57.00057,24.15963,https://saraksti.rigassatiksme.lv,,
1296a,,"Pagrieziens uz Baložiem",,56.88535,24.15293,https://saraksti.rigassatiksme.lv,,
5259a,,"Pagrieziens uz Baložiem",,56.88598,24.15317,https://saraksti.rigassatiksme.lv,,
5323a,,"Rāmava",,56.89054,24.14844,https://saraksti.rigassatiksme.lv,,
7749g,,"Abrenes iela",,56.94599,24.12864,https://saraksti.rigassatiksme.lv,,
1561,,"Āgenskalna priedes",,56.94454,24.05899,https://saraksti.rigassatiksme.lv,,
1307a,,"Pagrieziens uz Baložiem",,56.88409,24.15190,https://saraksti.rigassatiksme.lv,,
10521,,"Baltegļu iela",,56.97716,24.02589,https://saraksti.rigassatiksme.lv,,
9116,,"Lāčupes kapi",,56.97625,24.02474,https://saraksti.rigassatiksme.lv,,
0342a,,"Berģuciems",,56.97791,24.31008,https://saraksti.rigassatiksme.lv,,
0007,,"Alfa",,56.98381,24.20224,https://saraksti.rigassatiksme.lv,,
1801,,"Mārkalnes iela",,56.98809,24.22881,https://saraksti.rigassatiksme.lv,,
1803,,"Meža skola",,56.98637,24.21404,https://saraksti.rigassatiksme.lv,,
1804,,"Sporta akadēmija",,56.98582,24.20966,https://saraksti.rigassatiksme.lv,,
1802,,"Tirzas iela",,56.98735,24.22240,https://saraksti.rigassatiksme.lv,,
1559,,"Dzelzceļa stacija ""Turība""",,56.91229,24.07551,https://saraksti.rigassatiksme.lv,,
1560,,"Dzelzceļa stacija ""Turība""",,56.91209,24.07645,https://saraksti.rigassatiksme.lv,,
1562,,"Dreiliņu iela",,56.94183,24.06034,https://saraksti.rigassatiksme.lv,,
0489,,"Dzelzavas iela",,56.94822,24.23698,https://saraksti.rigassatiksme.lv,,
0406a,,"2.Meža kapi",,56.98420,24.15643,https://saraksti.rigassatiksme.lv,,
4160,,"Basu iela",,56.90821,24.09404,https://saraksti.rigassatiksme.lv,,
4161,,"Basu iela",,56.90830,24.09413,https://saraksti.rigassatiksme.lv,,
7013,,"Graudu iela",,56.90966,24.08708,https://saraksti.rigassatiksme.lv,,
7014,,"Graudu iela",,56.91055,24.08416,https://saraksti.rigassatiksme.lv,,
7015,,"Ķekavas iela",,56.91357,24.11014,https://saraksti.rigassatiksme.lv,,
7016,,"Ķekavas iela",,56.91410,24.11165,https://saraksti.rigassatiksme.lv,,
5928,,"Brīvības gatve",,56.97400,24.16550,https://saraksti.rigassatiksme.lv,,
1809,,"Ģipša iela",,56.95912,24.08248,https://saraksti.rigassatiksme.lv,,
1810,,"Ģipša iela",,56.95910,24.08197,https://saraksti.rigassatiksme.lv,,
8030a,,"Mežciems",,56.96984,24.24286,https://saraksti.rigassatiksme.lv,,
5406a,,"Ulbroka",,56.94021,24.29237,https://saraksti.rigassatiksme.lv,,
1816,,"Lejupes iela",,56.91095,24.14757,https://saraksti.rigassatiksme.lv,,
1817,,"Lejupes iela",,56.91115,24.14908,https://saraksti.rigassatiksme.lv,,
9115,,"2.trolejbusu parks",,56.93217,24.09908,https://saraksti.rigassatiksme.lv,,
9113,,"LU Akadēmiskais centrs",,56.93658,24.09799,https://saraksti.rigassatiksme.lv,,
9114,,"LU Akadēmiskais centrs",,56.93709,24.09801,https://saraksti.rigassatiksme.lv,,
9118,,"Biķeri",,56.95270,24.25583,https://saraksti.rigassatiksme.lv,,
9119,,"Dreiliņupīte",,56.94708,24.24618,https://saraksti.rigassatiksme.lv,,
0459,,"Jaunbiķeri",,56.95230,24.25009,https://saraksti.rigassatiksme.lv,,
0281,,"Viļānu iela",,56.94271,24.15169,https://saraksti.rigassatiksme.lv,,
5590,,"Gramzdas iela",,56.94030,23.99980,https://saraksti.rigassatiksme.lv,,
5591,,"Gramzdas iela",,56.93984,23.99910,https://saraksti.rigassatiksme.lv,,
1622,,"Gaismas pamatskola",,56.89417,24.23848,https://saraksti.rigassatiksme.lv,,
1623,,"Gaismas pamatskola",,56.89444,24.23828,https://saraksti.rigassatiksme.lv,,
0205,,"Getliņi",,56.88396,24.25718,https://saraksti.rigassatiksme.lv,,
7012,,"Anniņmuižas vidusskola",,56.96122,24.02205,https://saraksti.rigassatiksme.lv,,
3214a,,"Hamburgas iela",,56.99771,24.16144,https://saraksti.rigassatiksme.lv,,
3214b,,"Hamburgas iela",,56.99744,24.16151,https://saraksti.rigassatiksme.lv,,
3240a,,"Mežaparks / ZOO",,57.00472,24.15723,https://saraksti.rigassatiksme.lv,,
3237a,,"Mirdzas Ķempes iela",,56.99356,24.16393,https://saraksti.rigassatiksme.lv,,
3237b,,"Mirdzas Ķempes iela",,56.99372,24.16375,https://saraksti.rigassatiksme.lv,,
3239a,,"Visbijas prospekts",,57.00029,24.15992,https://saraksti.rigassatiksme.lv,,
1621,,"Sila iela",,56.90635,24.21479,https://saraksti.rigassatiksme.lv,,
1624,,"Sila iela",,56.90689,24.21396,https://saraksti.rigassatiksme.lv,,
10622,,"Imantas D/P",,56.96045,23.99724,https://saraksti.rigassatiksme.lv,,
1062a,,"Imantas D/P",,56.96033,23.99665,https://saraksti.rigassatiksme.lv,,
1807,,"Kaiju iela",,56.95650,24.08096,https://saraksti.rigassatiksme.lv,,
1808,,"Kaiju iela",,56.95698,24.08091,https://saraksti.rigassatiksme.lv,,
1805,,"Rīgas Tehniskā universitāte",,56.95233,24.08401,https://saraksti.rigassatiksme.lv,,
1806,,"Rīgas Tehniskā universitāte",,56.95247,24.08370,https://saraksti.rigassatiksme.lv,,
7075a,,"Piedrujas iela",,56.93422,24.17576,https://saraksti.rigassatiksme.lv,,
7978a,,"Pļavnieku kapi",,56.93466,24.22077,https://saraksti.rigassatiksme.lv,,
1395,,"Mārupe",,56.89518,24.04591,https://saraksti.rigassatiksme.lv,,
1549a,,"Babītes stacija",,56.95795,23.95176,https://saraksti.rigassatiksme.lv,,
0420,,"Meža prospekts",,56.99611,24.13239,https://saraksti.rigassatiksme.lv,,
5454a,,"Piedrujas iela",,56.94096,24.17607,https://saraksti.rigassatiksme.lv,,
0257a,,"Piedrujas iela",,56.94108,24.17625,https://saraksti.rigassatiksme.lv,,
5593,,"Noliktavu iela",,56.93275,24.23609,https://saraksti.rigassatiksme.lv,,
5926,,"Īslīces iela",,56.89851,24.08235,https://saraksti.rigassatiksme.lv,,
3255,,"Stacijas laukums",,56.94823,24.11602,https://saraksti.rigassatiksme.lv,,
0732,,"Kalnciema iela",,56.94506,24.08360,https://saraksti.rigassatiksme.lv,,
7074,,"Piedrujas iela",,56.93402,24.17443,https://saraksti.rigassatiksme.lv,,
1435a,,"Zolitūdes D/P",,56.94823,24.02459,https://saraksti.rigassatiksme.lv,,
2025a,,"Daugavas stadions",,56.95259,24.15318,https://saraksti.rigassatiksme.lv,,
1812,,"Sporta iela",,56.96480,24.11557,https://saraksti.rigassatiksme.lv,,
1813,,"Sporta iela",,56.96466,24.11527,https://saraksti.rigassatiksme.lv,,
1047,,"Upes iela",,56.97590,24.13379,https://saraksti.rigassatiksme.lv,,
1048,,"Upes iela",,56.97575,24.13437,https://saraksti.rigassatiksme.lv,,
7066,,"Stigu iela 10",,56.95678,24.22215,https://saraksti.rigassatiksme.lv,,
7067,,"Stigu iela 10",,56.95626,24.22107,https://saraksti.rigassatiksme.lv,,
5312,,"Puķulejas",,56.88747,23.98974,https://saraksti.rigassatiksme.lv,,
7065,,"Irlavas iela",,56.94058,24.03320,https://saraksti.rigassatiksme.lv,,
7064,,"Šampētera iela",,56.94072,24.03404,https://saraksti.rigassatiksme.lv,,
7063,,"Zasulauka iela",,56.94243,24.04043,https://saraksti.rigassatiksme.lv,,
9109,,"Aldaris",,57.00470,24.11948,https://saraksti.rigassatiksme.lv,,
4175,,"Ūnijas iela",,56.96442,24.17678,https://saraksti.rigassatiksme.lv,,
0142,,"Ģertrūdes iela",,56.94727,24.14301,https://saraksti.rigassatiksme.lv,,
1396,,"Bērnudārzs ""Zeltrīti""",,56.89005,24.04958,https://saraksti.rigassatiksme.lv,,
1397,,"Bērnudārzs ""Zeltrīti""",,56.88987,24.05070,https://saraksti.rigassatiksme.lv,,
1398,,"Veczariņu iela",,56.88950,24.05766,https://saraksti.rigassatiksme.lv,,
1394,,"Veczariņu iela",,56.88968,24.05636,https://saraksti.rigassatiksme.lv,,
1835,,"Gustava Zemgala gatve",,56.97333,24.16817,https://saraksti.rigassatiksme.lv,,
1555,,"Miglas iela",,56.92599,23.99243,https://saraksti.rigassatiksme.lv,,
3015,,"A.Grīna bulvāris",,56.94141,24.08265,https://saraksti.rigassatiksme.lv,,
3006,,"Slokas iela",,56.94167,24.08285,https://saraksti.rigassatiksme.lv,,
3005,,"E.Smiļģa iela",,56.93662,24.07592,https://saraksti.rigassatiksme.lv,,
3016,,"E.Smiļģa iela",,56.93674,24.07712,https://saraksti.rigassatiksme.lv,,
3004,,"Āgenskalna tirgus",,56.93558,24.07082,https://saraksti.rigassatiksme.lv,,
3017,,"Āgenskalna tirgus",,56.93564,24.07014,https://saraksti.rigassatiksme.lv,,
3002,,"Ormaņu iela",,56.93718,24.05967,https://saraksti.rigassatiksme.lv,,
3019,,"Ormaņu iela",,56.93739,24.05919,https://saraksti.rigassatiksme.lv,,
3003,,"Pārslas iela",,56.93668,24.06296,https://saraksti.rigassatiksme.lv,,
3018,,"Pārslas iela",,56.93674,24.06268,https://saraksti.rigassatiksme.lv,,
3196,,"Arkādijas parks",,56.93295,24.08390,https://saraksti.rigassatiksme.lv,,
3199,,"Arkādijas parks",,56.93280,24.08341,https://saraksti.rigassatiksme.lv,,
3042,,"A.Grīna bulvāris",,56.94202,24.08228,https://saraksti.rigassatiksme.lv,,
3043,,"A.Grīna bulvāris",,56.94196,24.08258,https://saraksti.rigassatiksme.lv,,
3040,,"Kalnciema iela",,56.94598,24.07403,https://saraksti.rigassatiksme.lv,,
3045,,"Kalnciema iela",,56.94547,24.07447,https://saraksti.rigassatiksme.lv,,
3039,,"Mārtiņa iela",,56.94851,24.07216,https://saraksti.rigassatiksme.lv,,
3046,,"Mārtiņa iela",,56.94821,24.07244,https://saraksti.rigassatiksme.lv,,
3041,,"Nometņu iela",,56.94341,24.07707,https://saraksti.rigassatiksme.lv,,
3044,,"Nometņu iela",,56.94298,24.07812,https://saraksti.rigassatiksme.lv,,
3014,,"Slokas iela",,56.94011,24.09027,https://saraksti.rigassatiksme.lv,,
3007,,"Uzvaras bulvāris",,56.93998,24.09079,https://saraksti.rigassatiksme.lv,,
3008,,"Nacionālā bibliotēka",,56.94132,24.09441,https://saraksti.rigassatiksme.lv,,
3013,,"Nacionālā bibliotēka",,56.94156,24.09498,https://saraksti.rigassatiksme.lv,,
3198,,"Slokas iela",,56.93915,24.09031,https://saraksti.rigassatiksme.lv,,
1315,,"Meža iela",,56.88146,24.14022,https://saraksti.rigassatiksme.lv,,
1309,,"Meža iela",,56.88148,24.13964,https://saraksti.rigassatiksme.lv,,
3185,,"Bišumuiža",,56.91458,24.14072,https://saraksti.rigassatiksme.lv,,
3186,,"Doles iela",,56.91589,24.13438,https://saraksti.rigassatiksme.lv,,
3210,,"Doles iela",,56.91580,24.13235,https://saraksti.rigassatiksme.lv,,
3209,,"Mazā Bauskas iela",,56.91570,24.12389,https://saraksti.rigassatiksme.lv,,
1612,,"Ādažu iela",,57.01317,24.25966,https://saraksti.rigassatiksme.lv,,
9094,,"Ādažu iela",,57.01410,24.25956,https://saraksti.rigassatiksme.lv,,
3061,,"Nacionālā opera",,56.94863,24.11399,https://saraksti.rigassatiksme.lv,,
3099,,"Nacionālā opera",,56.94836,24.11414,https://saraksti.rigassatiksme.lv,,
3166,,"Ausekļa iela",,56.95884,24.10004,https://saraksti.rigassatiksme.lv,,
3011,,"Centrāltirgus",,56.94411,24.11433,https://saraksti.rigassatiksme.lv,,
3065,,"Pētersalas iela",,56.96826,24.09791,https://saraksti.rigassatiksme.lv,,
3064,,"Vašingtona laukums",,56.96193,24.09836,https://saraksti.rigassatiksme.lv,,
3096,,"Vašingtona laukums",,56.96259,24.09830,https://saraksti.rigassatiksme.lv,,
3242,,"Aspazijas bulvāris",,56.94809,24.11489,https://saraksti.rigassatiksme.lv,,
3122,,"Bērnu pasaule",,56.95730,24.13350,https://saraksti.rigassatiksme.lv,,
3130,,"Bērnu pasaule",,56.95672,24.13238,https://saraksti.rigassatiksme.lv,,
3134,,"Brīvības iela",,56.96804,24.15100,https://saraksti.rigassatiksme.lv,,
3124,,"Dzirnavu iela",,56.95215,24.12310,https://saraksti.rigassatiksme.lv,,
3128,,"Dzirnavu iela",,56.95237,24.12357,https://saraksti.rigassatiksme.lv,,
3123,,"Ģertrūdes iela",,56.95459,24.12803,https://saraksti.rigassatiksme.lv,,
3129,,"Ģertrūdes iela",,56.95441,24.12772,https://saraksti.rigassatiksme.lv,,
3118,,"K.Barona iela",,56.96758,24.15066,https://saraksti.rigassatiksme.lv,,
3125,,"Merķeļa iela",,56.94995,24.11866,https://saraksti.rigassatiksme.lv,,
3127,,"Merķeļa iela",,56.95037,24.11955,https://saraksti.rigassatiksme.lv,,
3119,,"Pērnavas iela",,56.96559,24.14934,https://saraksti.rigassatiksme.lv,,
3133,,"Pērnavas iela",,56.96499,24.14873,https://saraksti.rigassatiksme.lv,,
3120,,"Sporta nams ""Daugava""",,56.96280,24.14438,https://saraksti.rigassatiksme.lv,,
3132,,"Sporta nams ""Daugava""",,56.96258,24.14398,https://saraksti.rigassatiksme.lv,,
3121,,"Tallinas iela",,56.96098,24.14075,https://saraksti.rigassatiksme.lv,,
3131,,"Tallinas iela",,56.96079,24.14045,https://saraksti.rigassatiksme.lv,,
3063,,"Ausekļa iela",,56.95742,24.10083,https://saraksti.rigassatiksme.lv,,
3097,,"Kronvalda bulvāris",,56.95771,24.10053,https://saraksti.rigassatiksme.lv,,
3062,,"Nacionālais teātris",,56.95375,24.10419,https://saraksti.rigassatiksme.lv,,
3098,,"Nacionālais teātris",,56.95327,24.10458,https://saraksti.rigassatiksme.lv,,
3230,,"Mēness iela",,56.96898,24.13594,https://saraksti.rigassatiksme.lv,,
3223,,"Tallinas iela",,56.96605,24.13359,https://saraksti.rigassatiksme.lv,,
3095,,"Eksporta iela",,56.96853,24.09827,https://saraksti.rigassatiksme.lv,,
3066,,"Katrīnas iela",,56.96819,24.10072,https://saraksti.rigassatiksme.lv,,
3094,,"Katrīnas iela",,56.96809,24.10150,https://saraksti.rigassatiksme.lv,,
3165,,"Prāgas iela",,56.94439,24.11512,https://saraksti.rigassatiksme.lv,,
3126,,"Stacijas laukums",,56.94765,24.11636,https://saraksti.rigassatiksme.lv,,
3058,,"Slokas iela",,56.96052,24.06023,https://saraksti.rigassatiksme.lv,,
3037,,"Botāniskais dārzs/Rīgas Stradiņa universitāte",,56.95127,24.05369,https://saraksti.rigassatiksme.lv,,
3048,,"Botāniskais dārzs/Rīgas Stradiņa universitāte",,56.95122,24.05279,https://saraksti.rigassatiksme.lv,,
3038,,"Baldones iela",,56.95066,24.06659,https://saraksti.rigassatiksme.lv,,
3047,,"Baldones iela",,56.95076,24.06559,https://saraksti.rigassatiksme.lv,,
3060,,"Dārza iela",,56.95342,24.06280,https://saraksti.rigassatiksme.lv,,
3101,,"Dārza iela",,56.95313,24.06285,https://saraksti.rigassatiksme.lv,,
3059,,"Eiženijas iela",,56.95664,24.06248,https://saraksti.rigassatiksme.lv,,
3057,,"Buļļu iela",,56.96326,24.06178,https://saraksti.rigassatiksme.lv,,
3104,,"Buļļu iela",,56.96290,24.06137,https://saraksti.rigassatiksme.lv,,
3056,,"Bēnes iela",,56.96488,24.06450,https://saraksti.rigassatiksme.lv,,
3055,,"Iļģuciems",,56.96499,24.06939,https://saraksti.rigassatiksme.lv,,
3105,,"Lilijas iela",,56.96475,24.06360,https://saraksti.rigassatiksme.lv,,
3102,,"Eiženijas iela",,56.95724,24.06199,https://saraksti.rigassatiksme.lv,,
3103,,"Saldus iela",,56.95926,24.06019,https://saraksti.rigassatiksme.lv,,
3033,,"Kleistu iela",,56.95985,24.02042,https://saraksti.rigassatiksme.lv,,
3052,,"Kleistu iela",,56.95998,24.02001,https://saraksti.rigassatiksme.lv,,
3034,,"Imantas iela",,56.95758,24.02675,https://saraksti.rigassatiksme.lv,,
3051,,"Imantas iela",,56.95760,24.02623,https://saraksti.rigassatiksme.lv,,
3032,,"Anniņmuižas bulvāris",,56.96094,24.01415,https://saraksti.rigassatiksme.lv,,
3053,,"Dammes iela",,56.96114,24.01394,https://saraksti.rigassatiksme.lv,,
3031,,"Imanta",,56.96615,24.00822,https://saraksti.rigassatiksme.lv,,
3054,,"Imanta",,56.96579,24.00886,https://saraksti.rigassatiksme.lv,,
3050,,"Bebru iela",,56.95687,24.03487,https://saraksti.rigassatiksme.lv,,
3036,,"Jūrmalas gatve",,56.95252,24.03480,https://saraksti.rigassatiksme.lv,,
3035,,"Kurzemes prospekts",,56.95661,24.03475,https://saraksti.rigassatiksme.lv,,
3049,,"Kurzemes prospekts",,56.95278,24.03502,https://saraksti.rigassatiksme.lv,,
3025,,"Jaunsaules iela",,56.95512,24.04559,https://saraksti.rigassatiksme.lv,,
3027,,"Jaunsaules iela",,56.95483,24.04556,https://saraksti.rigassatiksme.lv,,
3024,,"Jūrmalas gatve",,56.95106,24.04605,https://saraksti.rigassatiksme.lv,,
3028,,"Jūrmalas gatve",,56.95199,24.04580,https://saraksti.rigassatiksme.lv,,
3026,,"Tapešu iela",,56.95768,24.04643,https://saraksti.rigassatiksme.lv,,
5217,,"Mežciems",,56.89278,24.01376,https://saraksti.rigassatiksme.lv,,
5216,,"Mežciems",,56.89284,24.01453,https://saraksti.rigassatiksme.lv,,
5515,,"Pīlādžu iela",,56.87677,23.92948,https://saraksti.rigassatiksme.lv,,
3080,,"Mīlgrāvis",,57.01711,24.12302,https://saraksti.rigassatiksme.lv,,
3079,,"Daudersala",,57.01021,24.12509,https://saraksti.rigassatiksme.lv,,
3081,,"Daudersala",,57.00952,24.12540,https://saraksti.rigassatiksme.lv,,
3078,,"Gaujienas iela",,57.00624,24.12518,https://saraksti.rigassatiksme.lv,,
3082,,"Gaujienas iela",,57.00634,24.12516,https://saraksti.rigassatiksme.lv,,
3106,,"Jugla",,56.98973,24.24057,https://saraksti.rigassatiksme.lv,,
3146,,"Jugla",,56.98977,24.24152,https://saraksti.rigassatiksme.lv,,
3107,,"Mārkalnes iela",,56.98801,24.22874,https://saraksti.rigassatiksme.lv,,
3145,,"Mārkalnes iela",,56.98806,24.22943,https://saraksti.rigassatiksme.lv,,
3108,,"Tirzas iela",,56.98723,24.22210,https://saraksti.rigassatiksme.lv,,
3144,,"Tirzas iela",,56.98728,24.22280,https://saraksti.rigassatiksme.lv,,
3156,,"Atpūtas centrs ""Lido""",,56.92989,24.16335,https://saraksti.rigassatiksme.lv,,
3176,,"Atpūtas centrs ""Lido""",,56.92971,24.16346,https://saraksti.rigassatiksme.lv,,
3155,,"Krasta masīvs",,56.92556,24.16815,https://saraksti.rigassatiksme.lv,,
3177,,"Krasta masīvs",,56.92518,24.16841,https://saraksti.rigassatiksme.lv,,
1319,,"Rāmava",,56.89436,24.15491,https://saraksti.rigassatiksme.lv,,
1322,,"Rāmava",,56.89429,24.15271,https://saraksti.rigassatiksme.lv,,
1321,,"Kooperatīvs ""Ziedonis""",,56.89787,24.17290,https://saraksti.rigassatiksme.lv,,
1320,,"Dārziņi",,56.89547,24.17207,https://saraksti.rigassatiksme.lv,,
3151,,"Aglonas iela",,56.91220,24.17751,https://saraksti.rigassatiksme.lv,,
3181,,"Aglonas iela",,56.91234,24.17732,https://saraksti.rigassatiksme.lv,,
3154,,"Dienvidu tilts",,56.92139,24.17105,https://saraksti.rigassatiksme.lv,,
3178,,"Dienvidu tilts",,56.92102,24.17122,https://saraksti.rigassatiksme.lv,,
3148,,"Eglaines iela/Dole",,56.90644,24.18803,https://saraksti.rigassatiksme.lv,,
3184,,"Eglaines iela/Dole",,56.90657,24.18779,https://saraksti.rigassatiksme.lv,,
3153,,"Ķengaraga iela",,56.91826,24.17338,https://saraksti.rigassatiksme.lv,,
3179,,"Ķengaraga iela",,56.91809,24.17347,https://saraksti.rigassatiksme.lv,,
3149,,"Malnavas iela",,56.90864,24.18331,https://saraksti.rigassatiksme.lv,,
3183,,"Malnavas iela",,56.90844,24.18377,https://saraksti.rigassatiksme.lv,,
3152,,"Prūšu iela",,56.91475,24.17553,https://saraksti.rigassatiksme.lv,,
3180,,"Prūšu iela",,56.91509,24.17527,https://saraksti.rigassatiksme.lv,,
3150,,"Rušonu iela",,56.91013,24.17983,https://saraksti.rigassatiksme.lv,,
3182,,"Rušonu iela",,56.91030,24.17956,https://saraksti.rigassatiksme.lv,,
2137,,"Višķu iela",,56.89980,24.21582,https://saraksti.rigassatiksme.lv,,
0544,,"Krievupes iela",,57.00808,24.32820,https://saraksti.rigassatiksme.lv,,
0545,,"Krievupes iela",,57.00835,24.32820,https://saraksti.rigassatiksme.lv,,
5414,,"Mārupītes gatve",,56.90157,24.04943,https://saraksti.rigassatiksme.lv,,
3158,,"Aiviekstes iela",,56.93589,24.15598,https://saraksti.rigassatiksme.lv,,
3174,,"Balvu iela",,56.93659,24.15472,https://saraksti.rigassatiksme.lv,,
3164,,"Centrāltirgus",,56.94306,24.11275,https://saraksti.rigassatiksme.lv,,
3160,,"Daugavpils iela",,56.93872,24.14074,https://saraksti.rigassatiksme.lv,,
3172,,"Daugavpils iela",,56.93911,24.13963,https://saraksti.rigassatiksme.lv,,
3162,,"Elijas iela",,56.93988,24.12615,https://saraksti.rigassatiksme.lv,,
3170,,"Elijas iela",,56.93984,24.12742,https://saraksti.rigassatiksme.lv,,
3161,,"Katoļu iela",,56.93957,24.13544,https://saraksti.rigassatiksme.lv,,
3171,,"Katoļu iela",,56.93953,24.13551,https://saraksti.rigassatiksme.lv,,
3157,,"Lubānas iela",,56.93377,24.15953,https://saraksti.rigassatiksme.lv,,
3175,,"Lubānas iela",,56.93425,24.15868,https://saraksti.rigassatiksme.lv,,
3167,,"Maskavas iela",,56.94266,24.11422,https://saraksti.rigassatiksme.lv,,
3159,,"Mazā Kalna iela",,56.93787,24.14642,https://saraksti.rigassatiksme.lv,,
3173,,"Mazā Kalna iela",,56.93785,24.14596,https://saraksti.rigassatiksme.lv,,
3243,,"No 3.depo",,56.93384,24.15880,https://saraksti.rigassatiksme.lv,,
3163,,"Turgeņeva iela",,56.94163,24.11946,https://saraksti.rigassatiksme.lv,,
3168,,"Turgeņeva iela",,56.94130,24.12016,https://saraksti.rigassatiksme.lv,,
3212,,"Mežaparks / ZOO",,57.00556,24.15748,https://saraksti.rigassatiksme.lv,,
1154,,"Mežciema iela",,56.97302,24.23941,https://saraksti.rigassatiksme.lv,,
1158,,"Biķernieku iela",,56.96093,24.23116,https://saraksti.rigassatiksme.lv,,
3072,,"1.trolejbusu parks",,56.98733,24.12159,https://saraksti.rigassatiksme.lv,,
3088,,"1.trolejbusu parks",,56.98761,24.12163,https://saraksti.rigassatiksme.lv,,
3069,,"Bukultu iela",,56.97712,24.11400,https://saraksti.rigassatiksme.lv,,
3091,,"Bukultu iela",,56.97765,24.11440,https://saraksti.rigassatiksme.lv,,
3067,,"Ganību dambis",,56.96771,24.10535,https://saraksti.rigassatiksme.lv,,
3068,,"Lugažu iela",,56.97466,24.11203,https://saraksti.rigassatiksme.lv,,
3092,,"Lugažu iela",,56.97446,24.11184,https://saraksti.rigassatiksme.lv,,
3093,,"Pētersalas iela",,56.96782,24.10589,https://saraksti.rigassatiksme.lv,,
3071,,"Rāmuļu iela",,56.98339,24.11918,https://saraksti.rigassatiksme.lv,,
3089,,"Rāmuļu iela",,56.98356,24.11924,https://saraksti.rigassatiksme.lv,,
3070,,"Rankas iela",,56.97968,24.11612,https://saraksti.rigassatiksme.lv,,
3090,,"Rankas iela",,56.97946,24.11591,https://saraksti.rigassatiksme.lv,,
3251,,"Kultūru vidusskola",,56.97061,24.10872,https://saraksti.rigassatiksme.lv,,
3252,,"Kultūru vidusskola",,56.97037,24.10849,https://saraksti.rigassatiksme.lv,,
8071,,"Meistaru iela",,56.94293,23.90414,https://saraksti.rigassatiksme.lv,,
0357,,"Žīguru iela",,56.93693,24.22440,https://saraksti.rigassatiksme.lv,,
3086,,"Duntes iela",,56.99326,24.12306,https://saraksti.rigassatiksme.lv,,
3073,,"Rūpnīca ""RER""",,56.99017,24.12219,https://saraksti.rigassatiksme.lv,,
3087,,"Rūpnīca ""RER""",,56.99089,24.12210,https://saraksti.rigassatiksme.lv,,
3077,,"Aldaris",,57.00220,24.12368,https://saraksti.rigassatiksme.lv,,
3083,,"Aldaris",,57.00221,24.12368,https://saraksti.rigassatiksme.lv,,
2130,,"Meža prospekts",,56.99604,24.13189,https://saraksti.rigassatiksme.lv,,
3076,,"Allažu iela",,56.99845,24.12362,https://saraksti.rigassatiksme.lv,,
3084,,"Allažu iela",,56.99815,24.12350,https://saraksti.rigassatiksme.lv,,
3075,,"Sarkandaugavas iela",,56.99543,24.12592,https://saraksti.rigassatiksme.lv,,
3085,,"Tilta iela",,56.99510,24.12628,https://saraksti.rigassatiksme.lv,,
3074,,"Duntes iela",,56.99344,24.12329,https://saraksti.rigassatiksme.lv,,
1614,,"Saulīši",,56.92999,24.26235,https://saraksti.rigassatiksme.lv,,
1615,,"Cidoniju iela",,56.92609,24.25798,https://saraksti.rigassatiksme.lv,,
1616,,"Cidoniju iela",,56.92545,24.25875,https://saraksti.rigassatiksme.lv,,
1200,,"Ērgļu iela",,56.93412,24.24644,https://saraksti.rigassatiksme.lv,,
1201,,"Ērgļu iela",,56.93409,24.24627,https://saraksti.rigassatiksme.lv,,
1619,,"Ozolu iela",,56.93657,24.23926,https://saraksti.rigassatiksme.lv,,
1620,,"Ozolu iela",,56.93627,24.24011,https://saraksti.rigassatiksme.lv,,
1617,,"Strazdiņu iela",,56.92815,24.25491,https://saraksti.rigassatiksme.lv,,
1618,,"Strazdiņu iela",,56.92866,24.25404,https://saraksti.rigassatiksme.lv,,
3109,,"Meža skola",,56.98630,24.21433,https://saraksti.rigassatiksme.lv,,
3143,,"Meža skola",,56.98637,24.21506,https://saraksti.rigassatiksme.lv,,
3247,,"Meža skola",,56.98625,24.21517,https://saraksti.rigassatiksme.lv,,
3110,,"Sporta akadēmija",,56.98531,24.20763,https://saraksti.rigassatiksme.lv,,
3142,,"Sporta akadēmija",,56.98545,24.20834,https://saraksti.rigassatiksme.lv,,
1157,,"Sporta bāze ""Biķernieki""",,56.96499,24.23380,https://saraksti.rigassatiksme.lv,,
2019,,"Palmu iela",,56.97774,24.18125,https://saraksti.rigassatiksme.lv,,
3117,,"VEF",,56.97115,24.15993,https://saraksti.rigassatiksme.lv,,
3135,,"VEF",,56.97148,24.16104,https://saraksti.rigassatiksme.lv,,
3114,,"45.vidusskola",,56.97935,24.17670,https://saraksti.rigassatiksme.lv,,
3138,,"45.vidusskola",,56.97900,24.17552,https://saraksti.rigassatiksme.lv,,
3111,,"Alfa",,56.98433,24.20267,https://saraksti.rigassatiksme.lv,,
3141,,"Alfa",,56.98426,24.20218,https://saraksti.rigassatiksme.lv,,
3113,,"Džutas iela",,56.98150,24.18445,https://saraksti.rigassatiksme.lv,,
3139,,"Džutas iela",,56.98121,24.18345,https://saraksti.rigassatiksme.lv,,
3116,,"Gustava Zemgala gatve",,56.97365,24.16609,https://saraksti.rigassatiksme.lv,,
3136,,"Gustava Zemgala gatve",,56.97398,24.16667,https://saraksti.rigassatiksme.lv,,
3112,,"Krustabaznīcas iela",,56.98336,24.19456,https://saraksti.rigassatiksme.lv,,
3140,,"Krustabaznīcas iela",,56.98327,24.19414,https://saraksti.rigassatiksme.lv,,
3115,,"Lēdmanes iela",,56.97734,24.17206,https://saraksti.rigassatiksme.lv,,
3137,,"Lēdmanes iela",,56.97724,24.17186,https://saraksti.rigassatiksme.lv,,
1558,,"Tīraine",,56.88845,24.06243,https://saraksti.rigassatiksme.lv,,
3191,,"Viesītes iela",,56.91967,24.09788,https://saraksti.rigassatiksme.lv,,
3204,,"Viesītes iela",,56.92028,24.09732,https://saraksti.rigassatiksme.lv,,
3195,,"Torņakalna stacija",,56.93049,24.08704,https://saraksti.rigassatiksme.lv,,
3200,,"Torņakalna stacija",,56.93017,24.08835,https://saraksti.rigassatiksme.lv,,
3192,,"Vienības gatve/Bērnu slimnīca",,56.92118,24.08945,https://saraksti.rigassatiksme.lv,,
3193,,"Jelgavas iela",,56.92388,24.08988,https://saraksti.rigassatiksme.lv,,
3202,,"Jelgavas iela/Bērnu slimnīca",,56.92366,24.08979,https://saraksti.rigassatiksme.lv,,
3194,,"Satiksmes iela",,56.92736,24.09073,https://saraksti.rigassatiksme.lv,,
3201,,"Satiksmes iela",,56.92760,24.09078,https://saraksti.rigassatiksme.lv,,
3203,,"Telts iela",,56.92008,24.08890,https://saraksti.rigassatiksme.lv,,
3009,,"Grēcinieku iela",,56.94570,24.10606,https://saraksti.rigassatiksme.lv,,
3012,,"Grēcinieku iela",,56.94595,24.10565,https://saraksti.rigassatiksme.lv,,
3021,,"Zasulauka stacija",,56.94216,24.05212,https://saraksti.rigassatiksme.lv,,
3000,,"Zasulauka stacija",,56.94190,24.05316,https://saraksti.rigassatiksme.lv,,
3001,,"Kalnciema iela",,56.94074,24.05733,https://saraksti.rigassatiksme.lv,,
3020,,"Kalnciema iela",,56.94049,24.05752,https://saraksti.rigassatiksme.lv,,
3022,,"Elvīras iela",,56.94615,24.04844,https://saraksti.rigassatiksme.lv,,
3030,,"Elvīras iela",,56.94587,24.04864,https://saraksti.rigassatiksme.lv,,
3023,,"Kandavas iela",,56.94892,24.04690,https://saraksti.rigassatiksme.lv,,
3029,,"Kandavas iela",,56.94896,24.04683,https://saraksti.rigassatiksme.lv,,
3188,,"Mazā Stērstu iela",,56.91370,24.11707,https://saraksti.rigassatiksme.lv,,
3207,,"Mazā Stērstu iela",,56.91381,24.11626,https://saraksti.rigassatiksme.lv,,
3190,,"Skaistkalnes iela",,56.91788,24.10355,https://saraksti.rigassatiksme.lv,,
3205,,"Skaistkalnes iela",,56.91774,24.10387,https://saraksti.rigassatiksme.lv,,
3189,,"Stērstu iela/CSDD",,56.91513,24.11186,https://saraksti.rigassatiksme.lv,,
3206,,"Stērstu iela/CSDD",,56.91495,24.11233,https://saraksti.rigassatiksme.lv,,
3187,,"Ziepniekkalna iela",,56.91514,24.12305,https://saraksti.rigassatiksme.lv,,
3208,,"Ziepniekkalna iela",,56.91402,24.12143,https://saraksti.rigassatiksme.lv,,